s_id,s_brand,s_name,s_gu,s_address,s_lat,s_lng,e_id,e_brand,e_name,e_gu,e_address,e_lat,e_lng
1,STARBUCKS,신용산역,용산구,"서울특별시 용산구 한강대로 95 (한강로2가, 래미안용산)",37.52870200000000,126.96675700000000,616,EDIYA,IBK고객센터점,용산구,"서울 용산구 한남대로 72 (한남동, IBK기업은행고객센터)",37.53507440000000,127.00701240000000
2,STARBUCKS,용산아이파크몰,용산구,서울특별시 용산구 한강대로23길 55,37.52885390000000,126.96404469999993,617,EDIYA,동부이촌동점,용산구,서울 용산구 이촌로77길 19 (이촌동),37.52037139999999,126.97502380000000
3,STARBUCKS,용산전자랜드,용산구,서울특별시 용산구 청파로 74 (한강로3가),37.53286105987034,126.96100091132484,618,EDIYA,동자동점,용산구,서울 용산구 후암로 93 (동자동),37.55334230000000,126.97512130000000
4,STARBUCKS,용산역써밋R,용산구,"서울특별시 용산구 한강대로 69 (한강로2가, 용산푸르지오써밋)",37.52758600000000,126.96540100000000,619,EDIYA,삼각지점,용산구,서울 용산구 한강대로 138 (한강로2가),37.53048590000000,126.96951070000000
5,STARBUCKS,용산리첸시아,용산구,"서울특별시 용산구 백범로 341 (원효로1가, 리첸시아 용산)",37.53857100000000,126.96740900000000,620,EDIYA,숙대입구역점,용산구,서울 용산구 한강대로 289 (갈월동),37.54406080000000,126.97197220000000
6,STARBUCKS,용산해링턴스퀘어,용산구,서울특별시 용산구 서빙고로 17 (한강로3가),37.52585620000000,126.96764420000000,621,EDIYA,순천향병원점,용산구,서울 용산구 대사관로 72 ,37.53304790000000,127.00593780000000
7,STARBUCKS,효창공원앞역,용산구,"서울특별시 용산구 백범로 313 (효창동, 용산 롯데캐슬 센터포레)",37.53930500000000,126.96306000000000,622,EDIYA,용문점,용산구,서울 용산구 원효로41길 73 (원효로2가),37.53631710000001,126.96246250000000
8,STARBUCKS,용산파크타워,용산구,"서울특별시 용산구 서빙고로 67 (용산동5가, 파크타워)",37.52381800000000,126.97038900000000,623,EDIYA,용산원효점,용산구,"서울 용산구 원효로 70 (원효로4가, 신정빌딩)",37.53427760000000,126.95264130000000
9,STARBUCKS,남영동,용산구,서울특별시 용산구 한강대로 275 (갈월동),37.54283100000000,126.97224200000000,624,EDIYA,용산중앙점,용산구,서울 용산구 한강대로 52-1 (한강로3가),37.52560840000000,126.96486170000000
10,STARBUCKS,동부이촌동,용산구,서울특별시 용산구 이촌로 198 (이촌동),37.52111000000000,126.96905000000000,625,EDIYA,용산청파점,용산구,"서울 용산구 청파로71길 10 (청파동1가, 새마을금고)",37.55003870000000,126.96760590000000
11,STARBUCKS,역삼아레나빌딩,강남구,서울특별시 강남구 언주로 425 (역삼동),37.50108700000000,127.04306900000000,626,EDIYA,용산효창점,용산구,서울 용산구 효창원로66길 2 (효창동),37.54316270000000,126.96366900000000
12,STARBUCKS,논현역사거리,강남구,서울특별시 강남구 강남대로 538 (논현동),37.51017800000000,127.02222300000000,627,EDIYA,용산후암점,용산구,"서울 용산구 후암로 40-2 (후암동, 성원빌딩)",37.54948130000000,126.97766450000000
13,STARBUCKS,신사역성일빌딩,강남구,서울특별시 강남구 강남대로 584 (논현동),37.51393090000000,127.02060570000000,628,EDIYA,원효로점,용산구,서울 용산구 원효로 257 (원효로1가),37.53998010000000,126.96744700000000
14,STARBUCKS,국기원사거리,강남구,서울특별시 강남구 테헤란로 125 (역삼동),37.49951700000000,127.03149500000000,629,EDIYA,이태원역점,용산구,서울 용산구 이태원로 176 (이태원동),37.53450380000000,126.99069950000000
15,STARBUCKS,대치재경빌딩R,강남구,서울특별시 강남구 남부순환로 2947 (대치동),37.49466800000000,127.06258300000000,630,EDIYA,강남YMCA점,강남구,서울 강남구 논현동,37.51367870000000,127.03171240000000
16,STARBUCKS,봉은사역,강남구,서울특별시 강남구 봉은사로 619 (삼성동),37.51500000000000,127.06319600000000,631,EDIYA,강남구청역아이티웨딩점,강남구,"서울 강남구 학동로 338 (논현동, 강남파라곤)",37.51655130000000,127.04013910000000
17,STARBUCKS,압구정윤성빌딩,강남구,서울특별시 강남구 논현로 834 (신사동),37.52279340000000,127.02860090000000,632,EDIYA,강남논현학동점,강남구,서울 강남구 논현로131길 28 (논현동),37.51518990000000,127.02755390000000
18,STARBUCKS,코엑스별마당,강남구,서울특별시 강남구 영동대로 513 (삼성동),37.51015000000000,127.06027500000000,633,EDIYA,강남대치점,강남구,"서울 강남구 역삼로 415 (대치동, 성진빌딩)",37.50143400000000,127.05232800000000
19,STARBUCKS,삼성역섬유센터R,강남구,서울특별시 강남구 테헤란로 518 (대치동),37.50775000000000,127.06065100000000,634,EDIYA,강남도산점,강남구,서울 강남구 도산대로37길 20 (신사동),37.52228210000000,127.03147990000000
20,STARBUCKS,압구정R,강남구,서울특별시 강남구 언주로 861 (신사동),37.52736690000000,127.03306100000000,635,EDIYA,강남율현점,강남구,"서울 강남구 밤고개로21길 8 (율현동, 세곡프라자)",37.47358220000000,127.10783110000000
21,STARBUCKS,수서역R,강남구,서울특별시 강남구 광평로 281 (수서동),37.48800800000000,127.10265000000000,636,EDIYA,강남자곡점,강남구,"서울 강남구 자곡로 180 (자곡동, 강남유탑유블레스)",37.47348460000000,127.10309790000000
22,STARBUCKS,양재강남빌딩R,강남구,서울특별시 강남구 남부순환로 2621 (도곡동),37.48519200000000,127.03668500000000,637,EDIYA,개포동역점,강남구,"서울 강남구 개포로82길 11 (개포동, 삼우빌딩)",37.48893480000000,127.06793520000000
23,STARBUCKS,선릉동신빌딩R,강남구,서울특별시 강남구 테헤란로 409 (삼성동),37.50532100000000,127.05040900000000,638,EDIYA,건설회관점,강남구,서울 강남구 언주로 711 (논현동),37.51630030000000,127.02991230000000
24,STARBUCKS,봉은사로선정릉,강남구,서울특별시 강남구 봉은사로 446 (삼성동),37.51129300000000,127.04840900000000,639,EDIYA,대청역점,강남구,"서울 강남구 개포로109길 34 (개포동, 대청프라자)",37.49421560000000,127.07761700000000
25,STARBUCKS,강남오거리,강남구,서울특별시 강남구 봉은사로2길 39 (역삼동),37.50211700000000,127.02667200000000,640,EDIYA,도곡2동점,강남구,"서울 강남구 논현로 142 (도곡동, 동현빌딩)",37.48243510000000,127.04299330000000
26,STARBUCKS,스타필드코엑스몰R,강남구,서울특별시 강남구 영동대로 513 (삼성동) 코엑스 A106호,37.50999000000000,127.06145500000000,641,EDIYA,도산사거리점,강남구,서울 강남구 논현동 ,37.51367870000000,127.03171240000000
27,STARBUCKS,강남구청정문,강남구,서울특별시 강남구 학동로 419 (청담동),37.51818100000000,127.04599500000000,642,EDIYA,삼성대치점,강남구,"서울 강남구 삼성로64길 32 (대치동, 주성빌딩)",37.50041960000000,127.06307160000000
28,STARBUCKS,도곡공원,강남구,서울특별시 강남구 도곡로 205 (역삼동),37.49280500000000,127.04130900000000,643,EDIYA,삼성동점,강남구,서울 강남구 테헤란로88길 10 (대치동),37.50688330000000,127.05943700000000
29,STARBUCKS,강남R,강남구,서울특별시 강남구 강남대로 390 (역삼동),37.49771100000000,127.02843900000000,644,EDIYA,삼성중앙역점,강남구,"서울 강남구 삼성로 608 (삼성동, 우창빌딩)",37.50796000000000,127.05654690000000
30,STARBUCKS,대치은마사거리,강남구,서울특별시 강남구 도곡로 457 (대치동),37.49897300000000,127.06017200000000,645,EDIYA,삼성한전점,강남구,서울 강남구 테헤란로107길 11 (삼성동),37.51044080000000,127.06504850000000
31,STARBUCKS,청담영동대로,강남구,서울특별시 강남구 영동대로 720 (청담동),37.52215600000000,127.05644900000000,646,EDIYA,선릉사거리점,강남구,"서울 강남구 선릉로 519 (역삼동, 삼능빌딩)",37.50590500000000,127.04793700000000
32,STARBUCKS,압구정,강남구,서울특별시 강남구 압구정로30길 17 (신사동),37.52628300000000,127.02956000000000,647,EDIYA,선릉역점,강남구,"서울 강남구 테헤란로 332 (역삼동, HJ타워)",37.50381880000000,127.04814970000000
33,STARBUCKS,신사가로수,강남구,서울특별시 강남구 가로수길 59 ,37.52193300000000,127.02252100000000,648,EDIYA,수서역점,강남구,"서울 강남구 광평로 280 (수서동, 로즈데일오피스텔)",37.48734250000000,127.10300150000000
34,STARBUCKS,청담스타R,강남구,서울특별시 강남구 도산대로57길 24 (청담동),37.52521600000000,127.04182700000000,649,EDIYA,신사역점,강남구,서울 강남구 압구정로2길 62 (신사동),37.51779430000000,127.02144060000000
35,STARBUCKS,강남우성,강남구,서울특별시 강남구 강남대로 328 (역삼동),37.49239600000000,127.03091000000000,650,EDIYA,신사점,강남구,서울 강남구 도산대로 118 (논현동),37.51666790000000,127.02172790000000
36,STARBUCKS,학동사거리,강남구,서울특별시 강남구 도산대로 328 (논현동),37.52236449999999,127.03795430000002,651,EDIYA,압구정로데오역점,강남구,서울 강남구 선릉로161길 20 (신사동),37.52753400000000,127.03882820000000
37,STARBUCKS,대치사거리,강남구,서울특별시 강남구 삼성로 402 (대치동),37.50333100000000,127.05881700000000,652,EDIYA,역삼더블루점,강남구,"서울 강남구 논현로63길 16 (역삼동, 역삼종합시장 더블루)",37.49290900000000,127.03907230000000
38,STARBUCKS,포스코사거리,강남구,서울특별시 강남구 테헤란로 505 (삼성동) 화진빌딩,37.50753070000000,127.05742710000004,653,EDIYA,역삼상록점,강남구,"서울 강남구 테헤란로43길 18 (역삼동, SC빌딩)",37.50442250000000,127.04402700000000
39,STARBUCKS,을지병원사거리,강남구,"서울특별시 강남구 논현로 752 (논현동,구산빌딩)",37.51916320000000,127.02864460000000,654,EDIYA,역삼역점,강남구,서울 강남구 테헤란로25길 17 (역삼동),37.50181120000000,127.03521110000000
40,STARBUCKS,신사역,강남구,서울특별시 강남구 도산대로 108 (논현동) 렉스타워,37.51620210000000,127.02074280000000,655,EDIYA,역삼월드점,강남구,"서울 강남구 역삼로52길 14 (역삼동, 도곡프라자)",37.49854440000000,127.04793690000000
41,STARBUCKS,도곡역,강남구,서울특별시 강남구 남부순환로 2909 (대치동),37.49216700000000,127.05739800000000,656,EDIYA,역삼점,강남구,서울 강남구 논현로72길 13 (역삼동),37.49584150000000,127.04054440000000
42,STARBUCKS,서울세관사거리,강남구,서울특별시 강남구 언주로 650 (논현동) 한국건설기술인협회,37.51488700000000,127.03565300000000,657,EDIYA,역삼중앙점,강남구,서울 강남구 언주로81길 8 (역삼동),37.50036600000000,127.04286900000000
43,STARBUCKS,청담사거리,강남구,서울특별시 강남구 도산대로 458 (청담동) 리츠타워,37.52363510000000,127.04686509999999,658,EDIYA,역삼충현점,강남구,서울 강남구 논현로98길 7 (역삼동),37.50378790000000,127.03632960000000
44,STARBUCKS,한티역,강남구,"서울특별시 강남구 도곡로 408, 디마크빌딩 101호 (대치동)",37.49680100000000,127.05505500000000,659,EDIYA,역삼플래티넘점,강남구,"서울 강남구 테헤란로4길 46 (역삼동, 쌍용플래티넘밸류)",37.49533230000000,127.03037250000000
45,STARBUCKS,역삼초교사거리,강남구,서울특별시 강남구 역삼로 123 (역삼동),37.49410590000000,127.03299730000003,660,EDIYA,을지병원사거리점,강남구,서울 강남구 도산대로30길 7 (논현동),37.51940230000000,127.02943050000000
46,STARBUCKS,코엑스몰,강남구,서울특별시 강남구 영동대로 513 (삼성동) O103호,37.51371500000000,127.05924500000000,661,EDIYA,이디야커피랩,강남구,"서울 강남구 논현로 636 (논현동, 이디야빌딩)",37.52029460000000,127.03594570000000
47,STARBUCKS,가로수길,강남구,"서울특별시 강남구 논현로175길 94, 1~2층 (신사동)",37.52315930000000,127.02162499999997,662,EDIYA,일원동점,강남구,서울 강남구 양재대로27길 20 (일원동),37.49069850000000,127.08839480000000
48,STARBUCKS,역삼대로,강남구,"서울특별시 강남구 테헤란로 211, 한국고등교육재단빌딩 1층 (역삼동)",37.50162300000000,127.03937500000000,663,EDIYA,청담사거리점,강남구,서울 강남구 도산대로 521 (청담동),37.52486600000000,127.05037300000000
49,STARBUCKS,역삼포스코,강남구,"서울특별시 강남구 테헤란로 134, P&S TOWER (역삼동)",37.49972100000000,127.03358200000000,664,EDIYA,청담역점,강남구,"서울 강남구 삼성로 721 (청담동, 룩희 819)",37.52006810000000,127.04916340000000
50,STARBUCKS,강남대로,강남구,"서울특별시 강남구 강남대로 456, 한석타워 2층 1-2호 (역삼동)",37.50314000000000,127.02554600000000,665,EDIYA,포이사거리점,강남구,서울 강남구 개포로 218 (개포동),37.47846800000000,127.04662500000000
51,STARBUCKS,청담,강남구,"서울특별시 강남구 도산대로 532, 인희빌딩 1층 (청담동)",37.52436310000000,127.05155990000003,666,EDIYA,학동역점,강남구,"서울 강남구 학동로 219 (논현동, 국제빌딩)",37.50979250000000,127.02157800000000
52,STARBUCKS,삼성도심공항,강남구,서울특별시 강남구 테헤란로87길 33 (삼성동),37.50978630000000,127.05791339999996,667,EDIYA,학동제마점,강남구,서울 강남구 학동로34길 22 (논현동),37.51313870000001,127.03365000000000
53,STARBUCKS,삼성교,강남구,"서울특별시 강남구 영동대로86길 12, 동남유화빌딩 1층",37.50779400000000,127.06517000000000,668,EDIYA,한티역점,강남구,서울 강남구 도곡로69길 8 (대치동),37.49795510000000,127.05613040000000
54,STARBUCKS,학동역,강남구,서울특별시 강남구 논현로 704 (논현동),37.51464884000000,127.03073020000000,669,EDIYA,가오리역점,강북구,서울 강북구 삼각산로 108 (수유동),37.64053880000000,127.01616920000000
55,STARBUCKS,대치,강남구,서울특별시 강남구 도곡로 511 (대치동),37.49966175000000,127.06221710000000,670,EDIYA,광산사거리점,강북구,"서울 강북구 노해로 91 (수유동, 진흥빌딩)",37.64389570000000,127.02256970000000
56,STARBUCKS,SSG마켓도곡R,강남구,"서울특별시 강남구 언주로30길 57, 타워팰리스Ⅱ F 지하1층 (도곡동)",37.49029800000000,127.05489500000000,671,EDIYA,미아꿈의숲해링턴점,강북구,"서울 강북구 오현로 45 (미아동, 꿈의숲 해링턴 플레이스)",37.61855660000000,127.03408500000000
57,STARBUCKS,삼성,강남구,"서울특별시 강남구 테헤란로 443, 애플트리타워 1층 (삼성동)",37.50703529000000,127.05555030000000,672,EDIYA,미아삼거리점,강북구,"서울 강북구 도봉로 45 (미아동, 숭인시장)",37.61302380000000,127.02896420000000
58,STARBUCKS,선릉세화빌딩,강남구,서울특별시 강남구 테헤란로64길 18 (대치동) 1층,37.50377562000000,127.05119600000000,673,EDIYA,미아역점,강북구,서울 강북구 도봉로 207 -3(미아동),37.62711020000000,127.02543950000000
59,STARBUCKS,압구정역,강남구,"서울특별시 강남구 압구정로 170, 관영빌딩 1층 지하1층 (신사동)",37.52674095000000,127.02811050000000,674,EDIYA,미아중앙점,강북구,서울 강북구 도봉로 128 (미아동),37.62046450000000,127.02876310000000
60,STARBUCKS,압구정로,강남구,서울특별시 강남구 압구정로42길 32 (신사동),37.52680046000000,127.03471740000000,675,EDIYA,번동점,강북구,"서울 강북구 오현로 194 (번동, 덕수빌딩)",37.62883380000000,127.03985060000000
61,STARBUCKS,구역삼사거리,강남구,서울특별시 강남구 논현로 401 (역삼동),37.49592355000000,127.03886450000000,676,EDIYA,북한산점,강북구,서울 강북구 4.19로 85 (수유동),37.64474990000000,127.00560310000000
62,STARBUCKS,큰길타워,강남구,"서울특별시 강남구 테헤란로 223, 큰길타워빌딩 (역삼동)",37.50236693000000,127.04070000000000,677,EDIYA,삼각산점,강북구,서울 강북구 솔샘로40길 3 (미아동),37.61992030000000,127.01601070000000
63,STARBUCKS,강남구청역,강남구,"서울특별시 강남구 선릉로 669, 웰빙센터 1층 (논현동)",37.51658490000000,127.04124330000002,678,EDIYA,수유사거리점,강북구,"서울 강북구 덕릉로 82 (수유동, 제네스타워)",37.63440330000000,127.02285010000000
64,STARBUCKS,대치역,강남구,서울특별시 강남구 남부순환로 2936 (대치동) 107호,37.49355400000000,127.06187400000000,679,EDIYA,수유역점,강북구,서울 강북구 도봉로 355 (수유동),37.63939180000000,127.02674900000000
65,STARBUCKS,포이,강남구,서울특별시 강남구 논현로 88 (개포동),37.47781106000000,127.04514110000000,680,EDIYA,우이역도선사점,강북구,서울 강북구 삼양로173길 21 (우이동),37.66250020000000,127.01130470000000
66,STARBUCKS,아크플레이스,강남구,서울특별시 강남구 테헤란로 142 (역삼동),37.49971982000000,127.03490840000000,681,EDIYA,한신대점,강북구,서울 강북구 덕릉로 31 (수유동),37.63422210000000,127.01693430000000
67,STARBUCKS,학여울역,강남구,서울특별시 강남구 영동대로 215 (대치동),37.49803646000000,127.06849430000000,682,EDIYA,가양역점,강서구,서울 강서구 양천로 500 (등촌동),37.55752230000000,126.85596110000000
68,STARBUCKS,선정릉역,강남구,서울특별시 강남구 봉은사로 407 (삼성동) 에프오빌딩,37.51075489999999,127.04455970000003,683,EDIYA,강서nc점,강서구,서울 강서구 강서로54길 11 (등촌동),37.55933560000000,126.83927800000000
69,STARBUCKS,삼성현대힐,강남구,서울특별시 강남구 삼성로 605 (삼성동),37.51354184000000,127.05271830000000,684,EDIYA,강서교차로점,강서구,"서울 강서구 공항대로 437 (등촌동, 주신기업(주))",37.55752230000000,126.85596110000000
70,STARBUCKS,GS타워,강남구,서울특별시 강남구 논현로 508 (역삼동),37.50185920000000,127.03727759999992,685,EDIYA,강서구청점,강서구,"서울 강서구 화곡로 292 (화곡동, 서광프리메라)",37.55014560000000,126.84859370000000
71,STARBUCKS,압구정미소,강남구,서울특별시 강남구 논현로 841 (신사동),37.52405601000000,127.02791500000000,686,EDIYA,강서한강자이점,강서구,서울 강서구 양천로 401 (가양동),37.56788020000000,126.85107870000000
72,STARBUCKS,선릉역,강남구,"서울특별시 강남구 테헤란로 334, LG화재 빌딩 (역삼동)",37.50393894000000,127.04851350000000,687,EDIYA,개화산점,강서구,"서울 강서구 양천로 28 (방화동, 벽산에어트리움)",37.57225400000000,126.80709620000000
73,STARBUCKS,코엑스사거리,강남구,서울특별시 강남구 영동대로 616 (삼성동),37.51535100000000,127.06010900000000,688,EDIYA,공항시장역점,강서구,"서울 강서구 방화동로 37 (방화동, 메디스타워)",37.56400440000000,126.81079150000000
74,STARBUCKS,역삼럭키,강남구,서울특별시 강남구 도곡로 183 (역삼동),37.49220900000000,127.03938900000000,689,EDIYA,까치산로점,강서구,서울 강서구 까치산로 182 (화곡동),37.55331880000000,126.85389530000000
75,STARBUCKS,신압구정,강남구,서울특별시 강남구 언주로174길 29 (신사동),37.52811500000000,127.03644100000000,690,EDIYA,까치산역점,강서구,서울 강서구 강서로17길 6 (화곡동),37.53340910000000,126.84522440000000
76,STARBUCKS,아크로힐스논현,강남구,"서울특별시 강남구 봉은사로 304, 금강빌딩 1-2층 (역삼동)",37.50898041000000,127.04038690000000,691,EDIYA,내발산점,강서구,"서울 강서구 강서로 304 (내발산동, 영종빌딩)",37.55272840000000,126.83656710000000
77,STARBUCKS,강남비젼타워,강남구,"서울특별시 강남구 테헤란로2길 27, 1층 101호 (역삼동)",37.49645570000000,127.02968850000002,692,EDIYA,등촌역점,강서구,서울 강서구 등촌로 217 (등촌동),37.54915850000000,126.86330550000000
78,STARBUCKS,압구정로데오역,강남구,"서울특별시 강남구 선릉로 836, 삼원빌딩 1,2층 (청담동)",37.52654900000000,127.04043700000000,693,EDIYA,등촌중앙점,강서구,"서울 강서구 등촌로 67 (등촌동, 컴스웨이빌딩)",37.53608260000000,126.86316210000000
79,STARBUCKS,르네상스사거리,강남구,서울특별시 강남구 테헤란로 306 (역삼동),37.50272100000000,127.04430800000000,694,EDIYA,렘넌트문화센터점,강서구,"서울 강서구 화곡로63길 65 (등촌동, 예원교회)",37.55793260000000,126.84917620000000
80,STARBUCKS,포스코,강남구,"서울특별시 강남구 삼성로86길 7, 1층 (대치동)",37.50576000000000,127.05796600000000,695,EDIYA,마곡나루역점,강서구,"서울 강서구 마곡중앙5로 6 (마곡동, 마곡나루역보타닉푸르지오시티)",37.56693560000000,126.82656110000000
81,STARBUCKS,선릉로,강남구,"서울특별시 강남구 선릉로93길 22, 대흥빌딩 1층 (역삼동)",37.50505300000000,127.04657700000000,696,EDIYA,마곡수명산점,강서구,"서울 강서구 수명로 68-27 (내발산동, 웨스트엔드문화센터)",37.55267710000000,126.82668190000000
82,STARBUCKS,논현힐탑,강남구,서울특별시 강남구 논현로 648 (논현동),37.51155770000000,127.03226199999994,697,EDIYA,마곡퀸즈파크9점,강서구,"서울 강서구 공항대로 247 (마곡동, 퀸즈파크나인)",37.55937970000000,126.83473390000000
83,STARBUCKS,도산가로수길,강남구,"서울특별시 강남구 도산대로 134, 2층 (논현동)",37.51736229999999,127.02329570000006,698,EDIYA,마곡파인스퀘어점,강서구,"서울 강서구 마곡중앙4로 22 (마곡동, 파인스퀘어)",37.55841560000000,126.82942650000000
84,STARBUCKS,대치한티,강남구,서울특별시 강남구 선릉로 324 (대치동),37.49848180000000,127.05206600000000,699,EDIYA,마곡헤리움점,강서구,"서울 강서구 마곡중앙5로1길 25 (마곡동, 마곡헤리움2차)",37.56926600000000,126.82640300000000
85,STARBUCKS,개포동,강남구,서울특별시 강남구 선릉로 34 (개포동),37.48285513598820,127.06071524446210,700,EDIYA,방화동로점,강서구,서울 강서구 방화동로 95 (방화동),37.56904400000000,126.81257800000000
86,STARBUCKS,수서역사거리,강남구,서울특별시 강남구 광평로 280 (수서동),37.48732679377480,127.10314008188700,701,EDIYA,방화사거리점,강서구,"서울 강서구 양천로 72 (방화동, 해성빌딩)",37.57298620000000,126.80761850000000
87,STARBUCKS,코엑스아셈타워,강남구,서울특별시 강남구 영동대로 517 (삼성동),37.51301900000000,127.05983800000000,702,EDIYA,서울공진초교점,강서구,"서울 강서구 마곡중앙1로 26 (마곡동, 마곡엠리체)",37.55865330000000,126.82380950000000
88,STARBUCKS,센터필드R,강남구,서울특별시 강남구 테헤란로 231 (역삼동),37.50369465391196,127.04172081609172,703,EDIYA,송정역점,강서구,서울 강서구 공항대로 24 (공항동),37.56164649999999,126.80946640000000
89,STARBUCKS,도산사거리,강남구,서울특별시 강남구 언주로 727 (논현동),37.51966000000000,127.03410000000000,704,EDIYA,신방화중앙점,강서구,"서울 강서구 방화대로34길 92 (방화동, 불해빌딩)",37.57087660000000,126.82134390000000
90,STARBUCKS,강남세곡,강남구,서울특별시 강남구 헌릉로569길 18 (세곡동),37.46727431964400,127.09992972600000,705,EDIYA,염창동점,강서구,서울 강서구 양천로 689 (염창동),37.55052370000000,126.87295360000000
91,STARBUCKS,대치삼성프라자,강남구,서울특별시 강남구 영동대로 237 (대치동),37.50031300000000,127.06696100000000,706,EDIYA,염창블루나인점,강서구,서울 강서구 양천로 583 (염창동),37.55725180000000,126.86444100000000
92,STARBUCKS,언주역,강남구,서울특별시 강남구 봉은사로 222 (역삼동),37.50777500000000,127.03647200000000,707,EDIYA,우장산동점,강서구,서울 강서구 우현로 15 (화곡동),37.54718360000000,126.84360950000000
93,STARBUCKS,강남역신분당역사,강남구,서울특별시 강남구 강남대로 396 (역삼동),37.49705725439780,127.02818071438100,708,EDIYA,화곡남부시장점,강서구,서울 강서구 등촌로5길 80 (화곡동),37.53305990000000,126.85896240000000
94,STARBUCKS,삼성역,강남구,서울특별시 강남구 테헤란로 620 (대치동),37.50920696254126,127.06560851480327,709,EDIYA,화곡로점,강서구,서울 강서구 화곡로 133 (화곡동),37.54085930000000,126.83647730000000
95,STARBUCKS,테헤란로아남타워,강남구,서울특별시 강남구 테헤란로 311 (역삼동),37.50383000000000,127.04487000000000,710,EDIYA,화곡본동시장점,강서구,서울 강서구 까치산로4길 11 (화곡동),37.54222250000000,126.84430240000000
96,STARBUCKS,강남논현,강남구,서울특별시 강남구 강남대로 512 (논현동),37.50789785962540,127.02333861464400,711,EDIYA,화곡사거리점,강서구,서울 강서구 곰달래로 135 (화곡동),37.53078730000000,126.84792750000000
97,STARBUCKS,삼성동,강남구,서울특별시 강남구 영동대로96길 12 (삼성동),37.51084336612153,127.06363342044263,712,EDIYA,화곡중앙시장점,강서구,서울 강서구 가로공원로76길 61 (화곡동),37.53441130000000,126.83839180000000
98,STARBUCKS,역삼이마트,강남구,서울특별시 강남구 역삼로 310 (역삼동),37.49936700000000,127.04842500000000,713,EDIYA,관악구청점,관악구,"서울 관악구 관악로 164 (봉천동, 대우디오슈페리움1단지)",37.49215600000000,127.03093870000000
99,STARBUCKS,미아뉴타운,강북구,서울특별시 강북구 삼양로 161 (미아동),37.61831900000000,127.02107200000000,714,EDIYA,관악우성점,관악구,서울 관악구 관악로 232 (봉천동),37.48494770000000,126.95602740000000
100,STARBUCKS,강북구청사거리,강북구,서울특별시 강북구 도봉로 365 (수유동),37.64003540000000,127.02737660000000,715,EDIYA,관악하나로마트점,관악구,"서울 관악구 남부순환로 1369 (신림동, 관악농협농산물백화점)",37.48009130000000,126.90281970000000
101,STARBUCKS,미아사거리역,강북구,서울특별시 강북구 도봉로 32 (미아동),37.61180900000000,127.03069710000000,716,EDIYA,낙성대역점,관악구,서울 관악구 남부순환로 1915 (봉천동),37.47792620000000,126.96222190000000
102,STARBUCKS,수유역,강북구,서울특별시 강북구 도봉로 342 (번동),37.63801670000000,127.02613500000007,717,EDIYA,난곡사거리점,관악구,서울 관악구 남부순환로 1444 (신림동),37.48090380000000,126.91127540000000
103,STARBUCKS,미아역,강북구,서울특별시 강북구 도봉로 196 (미아동),37.62614800000000,127.02657800000000,718,EDIYA,남현홈플러스점,관악구,"서울 관악구 과천대로 909 (남현동, 남현프라자)",37.47512940000000,126.98116620000000
104,STARBUCKS,파라스파라서울,강북구,서울특별시 강북구 삼양로 689 (우이동) 파라스파라서울 지하1층,37.66438007461800,127.00856646710100,719,EDIYA,녹두거리점,관악구,서울 관악구 신림로 91 (신림동),37.47027810000000,126.93912000000000
105,STARBUCKS,발산역사거리,강서구,서울특별시 강서구 공항대로 248 (마곡동),37.55850900000000,126.83509600000000,720,EDIYA,보라매중앙점,관악구,"서울 관악구 보라매로 62 (봉천동, 보라매삼성아파트)",37.49409710000000,126.92785450000000
106,STARBUCKS,마곡역,강서구,서울특별시 강서구 공항대로 168 (마곡동),37.55961100000000,126.82629800000000,721,EDIYA,봉일시장점,관악구,서울 관악구 은천로 23 (봉천동),37.48641670000000,126.93792210000000
107,STARBUCKS,우장산역,강서구,서울특별시 강서구 강서로 267 (내발산동),37.54950100000000,126.83598400000000,722,EDIYA,봉천역점,관악구,서울 관악구 남부순환로 1725 (봉천동),37.48267770000000,126.94189460000000
108,STARBUCKS,마곡사이언스타워R,강서구,서울특별시 강서구 마곡동로 62 (마곡동),37.56052610000000,126.83388700000000,723,EDIYA,봉천중앙점,관악구,서울 관악구 남부순환로 1874 (봉천동),37.47899240000000,126.95775550000000
109,STARBUCKS,방화DT,강서구,서울특별시 강서구 방화대로 375 (방화동),37.57433900000000,126.81641500000000,724,EDIYA,사당중앙점,관악구,서울 관악구 과천대로 951 (남현동),37.47547400000000,126.98128600000000
110,STARBUCKS,마곡나루역,강서구,서울특별시 강서구 마곡중앙로 161-17 (마곡동),37.56813000000000,126.82614000000000,725,EDIYA,서울대중앙점,관악구,서울 관악구 남부순환로216길 2 (봉천동),37.48135310000000,126.94898990000000
111,STARBUCKS,마곡GMG,강서구,"서울특별시 강서구 마곡중앙6로 16 (마곡동) 117,118,119,120호",37.56048700000000,126.82966700000000,726,EDIYA,신대방역점,관악구,서울 관악구 난곡로 368 (신림동),37.48691080000000,126.91380090000000
112,STARBUCKS,가양역,강서구,서울특별시 강서구 양천로 476 (등촌동),37.56164000000000,126.85332700000000,727,EDIYA,신림난곡점,관악구,서울 관악구 난곡로 197 (신림동),37.47253780000000,126.91893870000000
113,STARBUCKS,화곡DT,강서구,서울특별시 강서구 등촌로 57 (화곡동),37.53514900000000,126.86323200000000,728,EDIYA,신림남부초교점,관악구,서울 관악구 남부순환로 1541-1 (신림동),37.48340719999999,126.92188880000000
114,STARBUCKS,양천향교역,강서구,서울특별시 강서구 강서로 463 (마곡동),37.56696400000000,126.84073100000000,729,EDIYA,신림대학동점,관악구,서울 관악구 호암로26길 17 (신림동),37.47076930000000,126.93461160000000
115,STARBUCKS,화곡동,강서구,서울특별시 강서구 화곡로 142(화곡동),37.54051150000000,126.83724130000000,730,EDIYA,신림미성점,관악구,서울 관악구 난곡로 250 (신림동),37.47652820000000,126.91597340000000
116,STARBUCKS,등촌,강서구,서울특별시 강서구 공항대로 329 (등촌동),37.55820430000000,126.84433919999992,731,EDIYA,신림신원점,관악구,서울 관악구 신원로 16 (신림동),37.48080200000000,126.92807900000000
117,STARBUCKS,염창역,강서구,서울특별시 강서구 공항대로 627 (염창동),37.54735900000000,126.87443600000000,732,EDIYA,신림신화교점,관악구,서울 관악구 신림로 199 (신림동),37.47554020000000,126.93620150000000
118,STARBUCKS,발산역,강서구,서울특별시 강서구 강서로 388 (등촌동) 그랜드마트,37.56033000000000,126.83927900000000,733,EDIYA,신림역점,관악구,서울 관악구 신림로 312 (신림동),37.48222880000000,126.93018280000000
119,STARBUCKS,까치산역,강서구,서울특별시 강서구 강서로13길 3 (화곡동),37.53230300000000,126.84607700000000,734,EDIYA,신림중앙점,관악구,서울 관악구 관천로 52 (신림동),37.48434719999999,126.92663670000000
120,STARBUCKS,화곡역8번출구,강서구,"서울특별시 강서구 강서로 179 (화곡동), 1층 일부",37.54251400000000,126.83906200000000,735,EDIYA,신림패션문화점,관악구,서울 관악구 봉천로6길 24 (신림동),37.48862990000000,126.92543080000000
121,STARBUCKS,강서우장산,강서구,"서울특별시 강서구 강서로 231 (화곡동, 우장산역 해링턴 타워), 116/117/118/119/120호",37.54630500000000,126.83592300000000,736,EDIYA,인헌점,관악구,서울 관악구 인헌길 17 (봉천동),37.47472450000000,126.96705410000000
122,STARBUCKS,등촌대로,강서구,"서울특별시 강서구 공항대로 543 (염창동, 센터스퀘어)",37.55101000000000,126.86638000000000,737,EDIYA,청룡중앙점,관악구,"서울 관악구 쑥고개로 80 (봉천동, 제이빌딩)",37.47917650000000,126.94526070000000
123,STARBUCKS,가양역사거리,강서구,"서울특별시 강서구 화곡로 416 (등촌동) 가양더스카이벨리5차 지식산업센터 101, 102, 114,~117호",37.56007000000000,126.85537200000000,738,EDIYA,관악구청점,관악구,"서울 관악구 관악로 164 (봉천동, 대우디오슈페리움1단지)",37.49215600000000,127.03093870000000
124,STARBUCKS,내발산,강서구,"서울특별시 강서구 강서로 323 (내발산동), 101/102호",37.55467000000000,126.83672000000000,739,EDIYA,관악우성점,관악구,서울 관악구 관악로 232 (봉천동),37.48494770000000,126.95602740000000
125,STARBUCKS,마곡웰튼,강서구,"서울특별시 강서구 마곡중앙5로 22 (마곡동), 104/105/106호",37.56754000000000,126.82553000000000,740,EDIYA,관악하나로마트점,관악구,"서울 관악구 남부순환로 1369 (신림동, 관악농협농산물백화점)",37.48009130000000,126.90281970000000
126,STARBUCKS,김포공항DT,강서구,서울특별시 강서구 개화동로 517 (방화동),37.56639600000000,126.80608000000000,741,EDIYA,낙성대역점,관악구,서울 관악구 남부순환로 1915 (봉천동),37.47792620000000,126.96222190000000
127,STARBUCKS,강서NC,강서구,서울특별시 강서구 강서로56길 17 (등촌동),37.56008800000000,126.84053400000000,742,EDIYA,난곡사거리점,관악구,서울 관악구 남부순환로 1444 (신림동),37.48090380000000,126.91127540000000
128,STARBUCKS,마곡나루공원,강서구,서울특별시 강서구 마곡중앙5로 47 (마곡동),37.56700700000000,126.82224600000000,743,EDIYA,남현홈플러스점,관악구,"서울 관악구 과천대로 909 (남현동, 남현프라자)",37.47147830000000,126.98241310000000
129,STARBUCKS,강서구청사거리,강서구,서울특별시 강서구 화곡로 350 (화곡동),37.55492660000000,126.85231330000000,744,EDIYA,녹두거리점,관악구,서울 관악구 신림로 91 (신림동),37.47027810000000,126.93912000000000
130,STARBUCKS,낙성대역,관악구,서울특별시 관악구 남부순환로 1908 (봉천동),37.47794600000000,126.96119300000000,745,EDIYA,보라매중앙점,관악구,"서울 관악구 보라매로 62 (봉천동, 보라매삼성아파트)",37.49409710000000,126.92785450000000
131,STARBUCKS,관악서울대입구R,관악구,서울특별시 관악구 관악로 158 (봉천동),37.47934300000000,126.95278000000000,746,EDIYA,봉일시장점,관악구,서울 관악구 은천로 23 (봉천동),37.48641670000000,126.93792210000000
132,STARBUCKS,신림DT,관악구,서울특별시 관악구 남부순환로 1419 (신림동),37.48093500000000,126.90840700000000,747,EDIYA,봉천역점,관악구,서울 관악구 남부순환로 1725 (봉천동),37.48267770000000,126.94189460000000
133,STARBUCKS,서울대역,관악구,서울특별시 관악구 남부순환로 1817 (봉천동),37.48159900000000,126.95220000000000,748,EDIYA,봉천중앙점,관악구,서울 관악구 남부순환로 1874 (봉천동),37.47899240000000,126.95775550000000
134,STARBUCKS,낙성대DT,관악구,서울특별시 관악구 남부순환로 1948 (봉천동),37.47616900000000,126.96500500000000,749,EDIYA,사당중앙점,관악구,서울 관악구 과천대로 951 (남현동),37.47547400000000,126.98128600000000
135,STARBUCKS,사당,관악구,서울특별시 관악구 남부순환로 2082-25,37.47601000000000,126.98099700000000,750,EDIYA,서울대중앙점,관악구,서울 관악구 남부순환로216길 2 (봉천동),37.48135310000000,126.94898990000000
136,STARBUCKS,보라매대교,관악구,서울특별시 관악구 보라매로3길 23 (봉천동) 1층,37.49144900000000,126.92543200000000,751,EDIYA,신대방역점,관악구,서울 관악구 난곡로 368 (신림동),37.48691080000000,126.91380090000000
137,STARBUCKS,신림,관악구,서울특별시 관악구 신림로 355-1 (신림동),37.48609493000000,126.92916020000000,752,EDIYA,신림난곡점,관악구,서울 관악구 난곡로 197 (신림동),37.47253780000000,126.91893870000000
138,STARBUCKS,신림타임스트림,관악구,서울특별시 관악구 신림로 330 타임스트림 1층,37.48385383000000,126.93017990000000,753,EDIYA,신림남부초교점,관악구,서울 관악구 남부순환로 1541-1 (신림동),37.48340719999999,126.92188880000000
139,STARBUCKS,서울대입구역,관악구,서울특별시 관악구 남부순환로 1812 (봉천동),37.48118000000000,126.95132400000000,754,EDIYA,신림대학동점,관악구,서울 관악구 호암로26길 17 (신림동),37.47076930000000,126.93461160000000
140,STARBUCKS,서울대입구역8번출구,관악구,서울특별시 관악구 남부순환로 1831 (봉천동),37.48120610000000,126.95369420000000,755,EDIYA,신림미성점,관악구,서울 관악구 난곡로 250 (신림동),37.47652820000000,126.91597340000000
141,STARBUCKS,봉천역,관악구,서울특별시 관악구 남부순환로 1730 (봉천동),37.48203753400640,126.94228779253800,756,EDIYA,신림신원점,관악구,서울 관악구 신원로 16 (신림동),37.48080200000000,126.92807900000000
142,STARBUCKS,건국대,광진구,서울특별시 광진구 능동로 117 (화양동),37.54155920000000,127.07112440000000,757,EDIYA,신림신화교점,관악구,서울 관악구 신림로 199 (신림동),37.47554020000000,126.93620150000000
143,STARBUCKS,어린이대공원역,광진구,서울특별시 광진구 능동로 243 (군자동),37.55194600000000,127.07640400000000,758,EDIYA,신림역점,관악구,서울 관악구 신림로 312 (신림동),37.48222880000000,126.93018280000000
144,STARBUCKS,아차산역,광진구,서울특별시 광진구 천호대로 676 (구의동),37.55053880000000,127.08987570000000,759,EDIYA,신림중앙점,관악구,서울 관악구 관천로 52 (신림동),37.48434719999999,126.92663670000000
145,STARBUCKS,올림픽대교북단,광진구,서울특별시 광진구 광나루로 608 (구의동),37.54112900000000,127.09524000000000,760,EDIYA,신림패션문화점,관악구,서울 관악구 봉천로6길 24 (신림동),37.48862990000000,126.92543080000000
146,STARBUCKS,구의DT,광진구,서울특별시 광진구 광나루로 519 (구의동),37.54519840000000,127.08715870000000,761,EDIYA,인헌점,관악구,서울 관악구 인헌길 17 (봉천동),37.47472450000000,126.96705410000000
147,STARBUCKS,자양사거리,광진구,서울특별시 광진구 아차산로 355,37.53711580000000,127.08258210000000,762,EDIYA,청룡중앙점,관악구,"서울 관악구 쑥고개로 80 (봉천동, 제이빌딩)",37.47917650000000,126.94526070000000
148,STARBUCKS,군자역,광진구,서울특별시 광진구 천호대로 548 (군자동) 중앙빌딩,37.55696500000000,127.07903200000000,763,EDIYA,가산두산위브점,금천구,서울 금천구 가산로 111 (가산동),37.47560550000000,126.89290490000000
149,STARBUCKS,광나루,광진구,"서울특별시 광진구 아차산로 607, 1,2층 (광장동)",37.54744200000000,127.10593400000000,764,EDIYA,가산리더스타워점,금천구,서울 금천구 벚꽃로 286 (가산동),37.48036800000000,126.88417650000000
150,STARBUCKS,건대스타시티,광진구,서울특별시 광진구 아차산로 262 (자양동),37.53854400000000,127.07300900000000,765,EDIYA,가산벽산점,금천구,서울 금천구 벚꽃로 244 (가산동),37.47669010000000,126.88580780000000
151,STARBUCKS,건대입구,광진구,서울특별시 광진구 능동로 107 (화양동),37.54066040000000,127.07072249999999,766,EDIYA,가산에이스점,금천구,서울 금천구 가산디지털1로 196 (가산동),37.48291230000000,126.88114240000000
152,STARBUCKS,구의역,광진구,서울특별시 광진구 아차산로 373 (구의동),37.53698000000000,127.08401500000000,767,EDIYA,가산오거리점,금천구,"서울 금천구 가산로 155 (가산동, 케이디에스빌딩)",37.47883240000000,126.89005520000000
153,STARBUCKS,광장,광진구,서울특별시 광진구 아차산로 537-17 (광장동),37.54251800000000,127.09965100000000,768,EDIYA,가산월드점,금천구,서울 금천구 가산디지털2로 123 (가산동),37.47875680000000,126.87871710000000
154,STARBUCKS,건국클래식,광진구,서울특별시 광진구 능동로 90 (자양동) 더 클래식500,37.53846600000000,127.07127100000000,769,EDIYA,가산하이엔드10차점,금천구,"서울 금천구 가산디지털1로 30 (가산동, 에이스하이엔드타워10)",37.46880030000000,126.88747480000000
155,STARBUCKS,건대후문,광진구,서울특별시 광진구 능동로 172 (화양동),37.54601801384760,127.07400118174400,770,EDIYA,금천롯데마트점,금천구,"서울 금천구 시흥대로 291 (독산동, 금천롯데캐슬골드파크3차)",37.46046570000000,126.89741810000000
156,STARBUCKS,중곡역,광진구,"서울특별시 광진구 능동로 400 (중곡동) 1층 108,109,110,111,112,118 6개호실",37.56501095087320,127.08459679908000,771,EDIYA,독산동쌈지공원점,금천구,서울 금천구 독산로 276 (독산동),37.47135420000000,126.90328720000000
157,STARBUCKS,자양이마트,광진구,서울특별시 광진구 아차산로 272 (자양동) 지하1층,37.53781700000000,127.07259700000000,772,EDIYA,독산동점,금천구,"서울 금천구 독산로 218 (독산동, 창영빌딩)",37.46631080000000,126.90199860000000
158,STARBUCKS,뚝섬유원지역,광진구,"서울특별시 광진구 능동로 18 (자양동, 이튼타워리버3차)",37.53268464047900,127.06787850355700,773,EDIYA,독산롯데시네마점,금천구,서울 금천구 시흥대로 399 (독산동),37.46940700000000,126.89745280000000
159,STARBUCKS,군자사거리,광진구,서울특별시 광진구 천호대로 549 (중곡동) 1층,37.55756660000000,127.07933400000000,774,EDIYA,박미삼거리점,금천구,서울 금천구 시흥대로 150 (시흥동),37.44762770000000,126.90365990000000
160,STARBUCKS,금천구청역,금천구,"서울특별시 금천구 시흥대로73길 67 (시흥동)112,113,114,115호",37.45598300000000,126.89572700000000,775,EDIYA,석수푸르지오점,금천구,"서울 금천구 삼성산길 11 (시흥동, 위너스타워)",37.43409590000000,126.90483110000000
161,STARBUCKS,가산에스케이,금천구,서울특별시 금천구 가산디지털1로 171 (가산동),37.48061318000000,126.88057020000000,776,EDIYA,세광교회점,금천구,서울 금천구 독산로 124 (시흥동),37.45835160000000,126.90556160000000
162,STARBUCKS,독산사거리,금천구,서울특별시 금천구 시흥대로 426 (독산동),37.47152832874549,126.89856062315228,777,EDIYA,시흥동점,금천구,서울 금천구 시흥동,37.44952760000000,126.90928940000000
163,STARBUCKS,금천시흥,금천구,서울특별시 금천구 시흥대로 164 (시흥동),37.44862400000000,126.90318300000000,778,EDIYA,시흥사거리점,금천구,서울 금천구 시흥대로63길 8 (시흥동),37.45507260000000,126.89910280000000
164,STARBUCKS,가산디지털단지역,금천구,서울특별시 금천구 벚꽃로 298 (가산동),37.48132400000000,126.88377900000000,779,EDIYA,시흥유통센터점,금천구,"서울 금천구 시흥대로 88 (시흥동, 오복빌딩)",,
165,STARBUCKS,금천독산,금천구,서울특별시 금천구 두산로 70 (독산동),37.46914000000000,126.89524600000000,780,EDIYA,시흥중앙점,금천구,서울 금천구 금하로 748 (시흥동),37.44988870000000,126.91253000000000
166,STARBUCKS,가산디지털,금천구,서울특별시 금천구 가산디지털1로 168 (가산동),37.47983460000000,126.88249969999992,781,EDIYA,은행나무사거리점,금천구,서울 금천구 금하로 690 (시흥동),37.45178770000000,126.90657560000000
167,STARBUCKS,마리오아울렛,금천구,서울특별시 금천구 벚꽃로 266 마리오아울렛3관,37.47870100000000,126.88507600000000,782,EDIYA,공릉역점,노원구,서울 노원구 동일로192길 5 (공릉동),37.62052320000000,127.10259400000000
168,STARBUCKS,가산브이타워,금천구,서울특별시 금천구 가산디지털1로 128 (가산동),37.47722100000000,126.88368300000000,783,EDIYA,광운대점,노원구,서울 노원구 광운로 29 (월계동),37.62033030000000,127.05842390000000
169,STARBUCKS,가산그레이트,금천구,"서울특별시 금천구 디지털로9길 32, 갑을그레이트밸리 1층 (가산동)",37.47944910000000,126.88747680000006,784,EDIYA,노원사거리점,노원구,서울 노원구 동일로 1393 (상계동),37.65294110000000,127.06051510000000
170,STARBUCKS,독산역,금천구,"서울특별시 금천구 가산디지털1로 16 (가산동), 107-2, 108, 109호",37.46764460000000,126.88766980000000,785,EDIYA,노원중앙점,노원구,서울 노원구 노원로 452 (상계동),37.65686480000001,127.06710730000000
171,STARBUCKS,가산현대아울렛,금천구,"서울특별시 금천구 디지털로10길 9 (가산동), 1층 일부",37.47758100000000,126.88860300000000,786,EDIYA,당고개역점,노원구,서울 노원구 상계로 313 (상계동),37.67084110000000,127.08037760000000
172,STARBUCKS,월계역,노원구,"서울특별시 노원구 초안산로2라길26 월계동(104,105,106호)",37.62950000000000,127.05740000000000,787,EDIYA,상계동점,노원구,서울 노원구 한글비석로52길 8 (상계동),37.66488330000000,127.06646000000000
173,STARBUCKS,월계트레이더스,노원구,서울특별시 노원구 마들로3길 15 (월계동),37.62770530000000,127.06149779999998,788,EDIYA,상계역사거리점,노원구,서울 노원구 한글비석로 409 (상계동) 1~2층,37.66112670000000,127.07084600000000
174,STARBUCKS,상계초교사거리,노원구,서울특별시 노원구 노원로 449 (상계동),37.65677600000000,127.06644200000000,789,EDIYA,상계역점,노원구,서울 노원구 덕릉로 698 (중계동),37.65101250000000,127.07999770000000
175,STARBUCKS,공릉DT,노원구,서울특별시 노원구 동일로 1015 (공릉동),37.62068840000000,127.07431160000000,790,EDIYA,상계중앙점,노원구,서울 노원구 동일로 1650 (상계동),37.67547050000000,127.05559780000000
176,STARBUCKS,노원마들역,노원구,"서울특별시 노원구 노원로 569 (상계동, 임광아파트)",37.66094100000000,127.05800800000000,791,EDIYA,서울여대점,노원구,서울 노원구 노원로 3 (공릉동),37.62198640000000,127.08662050000000
177,STARBUCKS,공릉역,노원구,서울특별시 노원구 동일로 1081 (공릉동),37.62633700000000,127.07225200000000,792,EDIYA,세이브존노원점,노원구,"서울 노원구 한글비석로 57 (하계동, 세이브존)",37.63786580000000,127.06870700000000
178,STARBUCKS,은행사거리,노원구,"서울특별시 노원구 중계로 217, 중흥빌딩 103,203호 (중계동)",37.65048737000000,127.07598610000000,793,EDIYA,세이브존노원점,노원구,"서울 노원구 한글비석로 57 (하계동, 세이브존)",37.63786580000000,127.06870700000000
179,STARBUCKS,노원KT,노원구,"서울특별시 노원구 노해로 502, (주)KT 노원사옥 (상계동)",37.65456200000000,127.06361700000000,794,EDIYA,수락산역점,노원구,"서울 노원구 동일로 1689 (상계동, 하이베라스)",37.67918909999999,127.05498660000000
180,STARBUCKS,광운대,노원구,서울특별시 노원구 석계로 104 (월계동),37.62314790000000,127.06070090000003,795,EDIYA,원자력병원점,노원구,서울 노원구 공릉로46길 6 (공릉동),37.62687850000000,127.07949500000000
181,STARBUCKS,중계역,노원구,"서울특별시 노원구 동일로 1339, 대한빌딩 (상계동)",37.64817000000000,127.06224400000000,796,EDIYA,월계이마트점,노원구,"서울 노원구 마들로3길 15 (월계동, 월계이마트)",37.62644000000000,127.06190910000000
182,STARBUCKS,노원역,노원구,서울특별시 노원구 동일로 1413 (상계동) 1층,37.65475100000000,127.06003400000000,797,EDIYA,월계인덕점,노원구,서울 노원구 광운로22길 39 (월계동),37.62981510000000,127.05884660000000
183,STARBUCKS,월계이마트,노원구,서울특별시 노원구 마들로3길 15 (월계동),37.62715500000000,127.06209400000000,798,EDIYA,월계초교점,노원구,서울 노원구 월계동 ,37.62823940000000,127.05675990000000
184,STARBUCKS,태릉입구역DT,노원구,서울특별시 노원구 화랑로 469 (공릉동),37.61942000000000,127.07932000000000,799,EDIYA,중계롯데우성점,노원구,서울 노원구 노원로22길 70 (중계동),37.64820860000000,127.08390100000000
185,STARBUCKS,노원상계,노원구,서울특별시 노원구 동일로215길 2 (상계동),37.65153500000000,127.06102600000000,800,EDIYA,중계본동점,노원구,서울 노원구 중계로14바길 2 (중계동),37.64987560000000,127.08259820000000
186,STARBUCKS,창동이마트,도봉구,서울특별시 도봉구 노해로65길 4 (창동),37.65164500000000,127.04686900000000,801,EDIYA,중계브라운스톤점,노원구,"서울 노원구 동일로203가길 29 (중계동, 브라운스톤중계)",37.64001470000000,127.06428920000000
187,STARBUCKS,쌍문역,도봉구,서울특별시 도봉구 도봉로 480 (창동),37.64845600000000,127.03478300000000,802,EDIYA,중계점,노원구,서울 노원구 동일로204가길 34 (중계동),37.64074890000000,127.06823630000000
188,STARBUCKS,쌍문도봉로,도봉구,서울특별시 도봉구 도봉로 444 (창동),37.64535160000000,127.03310110000000,803,EDIYA,중계중앙점,노원구,서울 노원구 덕릉로73길 18 (중계동),37.64430410000000,127.08688500000000
189,STARBUCKS,도봉로DT,도봉구,서울특별시 도봉구 도봉로 635 (쌍문동),37.66118059290410,127.04163006595700,804,EDIYA,태릉입구역점,노원구,"서울 노원구 공릉로 105 (공릉동, 성종빌딩)",37.61961880000000,127.07784970000000
190,STARBUCKS,방학역,도봉구,"서울특별시 도봉구 도봉로 684 (방학동)101,102,113,114,115호",37.66531250000000,127.04331250000000,805,EDIYA,덕성여대점,도봉구,서울 도봉구 삼양로 542 (쌍문동),37.65157280000000,127.01298990000000
191,STARBUCKS,창동역,도봉구,서울특별시 도봉구 마들로13길 61 (창동),37.65450210559090,127.04967253360700,806,EDIYA,도봉보건소사거리점,도봉구,서울 도봉구 해등로 157 (쌍문동),37.65677080000000,127.03882060000000
192,STARBUCKS,노량진동,동작구,"서울특별시 동작구 노량진로 190 (노량진동, 고려교육타워-어바니엘한강) 101호~105호",37.51306800000000,126.94653700000000,807,EDIYA,도봉산점,도봉구,서울 도봉구 도봉산길 18 (도봉동),37.68753390000000,127.04367050000000
193,STARBUCKS,남성역,동작구,서울특별시 동작구 사당로 219 (사당동),37.48411980000000,126.97257390000000,808,EDIYA,도봉역점,도봉구,서울 도봉구 도봉로 823 (도봉동),37.67790410000000,127.04475290000000
194,STARBUCKS,상도역,동작구,서울특별시 동작구 상도로37길 1 (상도1동),37.50319360000000,126.94845810000000,809,EDIYA,도봉중앙점,도봉구,서울 도봉구 도봉로181길 18 (도봉동),37.68424600000000,127.04486620000000
195,STARBUCKS,보라매공원R,동작구,"서울특별시 동작구 보라매로5길 35 (신대방동, 파크스퀘어,보라매현대APT)",37.49226212712864,126.92334570798292,810,EDIYA,방학사거리점,도봉구,서울 도봉구 도봉로 677 (방학동),37.66260350000000,127.04103310000000
196,STARBUCKS,이수자이,동작구,서울특별시 동작구 사당로 300 (사당동 이수자이),37.48441400000000,126.98004700000000,811,EDIYA,방학역점,도봉구,서울 도봉구 도봉로153길 15 (방학동),37.67088090000001,127.03495690000000
197,STARBUCKS,노량진역,동작구,서울특별시 동작구 노량진로 134 (노량진동),37.51339000000000,126.94087900000000,812,EDIYA,방학점,도봉구,서울 도봉구 방학로 171 (방학동),37.66215640000000,127.03325050000000
198,STARBUCKS,신대방삼거리역,동작구,서울특별시 동작구 상도로 102 (상도동),37.49991400000000,126.93176600000000,813,EDIYA,방학중앙점,도봉구,서울 도봉구 도당로13길 22 (방학동),37.66576820000000,127.03531590000000
199,STARBUCKS,중앙대,동작구,서울특별시 동작구 흑석로 75-1 (흑석동),37.50693300000000,126.95812500000000,814,EDIYA,선덕고사거리점,도봉구,"서울 도봉구 해등로 255 (쌍문동, 에벤에셀아파트)",37.65736770000000,127.02823850000000
200,STARBUCKS,숭실대입구역,동작구,서울특별시 동작구 상도로 354 (상도동),37.49683460000000,126.95271230000003,815,EDIYA,솔밭공원역점,도봉구,"서울 도봉구 삼양로 594 (쌍문동, 주함해븐빌)",37.65623020000000,127.01353770000000
201,STARBUCKS,숭실대,동작구,서울특별시 동작구 사당로 4 (상도동),37.49538073000000,126.95488910000000,816,EDIYA,신창점,도봉구,서울 도봉구 덕릉로 235 (창동),37.63893500000000,127.03809880000000
202,STARBUCKS,사당역,동작구,"서울특별시 동작구 동작대로 21, 양지빌딩 1-3층 (사당동)",37.47849216000000,126.98134560000000,817,EDIYA,쌍문동점,도봉구,서울 도봉구 노해로 162 (쌍문동),37.64880580000000,127.02728200000000
203,STARBUCKS,서강대프라자,마포구,서울특별시 마포구 백범로 35 (신수동),37.55107300000000,126.94309600000000,818,EDIYA,쌍문역점,도봉구,서울 도봉구 도봉로117길 4 (쌍문동),37.66046150000000,127.03843690000000
204,STARBUCKS,상암YTN,마포구,서울특별시 마포구 상암산로 76 (상암동),37.57918300000000,126.89231500000000,819,EDIYA,쌍문중앙점,도봉구,서울 도봉구 도봉로 519 (쌍문동),37.65688410000000,127.01530620000000
205,STARBUCKS,마포용강동,마포구,서울특별시 마포구 토정로 295 (용강동),37.54118600000000,126.94220900000000,820,EDIYA,창동대우점,도봉구,서울 도봉구 덕릉로63가길 30 (창동),37.64350110000000,127.03872970000000
206,STARBUCKS,홍대입구역사거리R,마포구,서울특별시 마포구 양화로 125 (서교동),37.55463600000000,126.92036000000000,821,EDIYA,창동블루핀점,도봉구,서울 도봉구 마들로 550 (창동),37.66049730000000,127.04961950000000
207,STARBUCKS,마포경찰서후문,마포구,서울특별시 마포구 마포대로 173-14 (아현동),37.55080000000000,126.95343200000000,822,EDIYA,창동역점,도봉구,서울 도봉구 마들로11길 65 (창동),37.65338420000000,127.04971090000000
208,STARBUCKS,공덕,마포구,서울특별시 마포구 마포대로 130 (공덕동),37.54591300000000,126.95295600000000,823,EDIYA,창동제일점,도봉구,서울 도봉구 노해로70길 81 (창동),37.64884820000000,127.05256910000000
209,STARBUCKS,합정폴리스R,마포구,"서울특별시 마포구 양화로 45 (서교동, 메세나폴리스)",37.55090000000000,126.91340000000000,824,EDIYA,창동하나로마트점,도봉구,"서울 도봉구 마들로11길 20 (창동, 농협창동유통센타)",37.65489070000000,127.05172100000000
210,STARBUCKS,홍대공항철도역,마포구,서울특별시 마포구 양화로 178 (동교동),37.55749100000000,126.92514600000000,825,EDIYA,창동학원가점,도봉구,서울 도봉구 해등로16길 61 (창동),37.65514280000000,127.04335190000000
211,STARBUCKS,마포염리,마포구,서울특별시 마포구 독막로 311 (염리동),37.54387600000000,126.94768000000000,826,EDIYA,창동현대타운점,도봉구,서울 도봉구 도봉로114길 22 (창동),37.64736640000000,127.03568050000000
212,STARBUCKS,서강광흥창역,마포구,서울특별시 마포구 서강로 69 (창전동),37.54937700000000,126.93166100000000,827,EDIYA,남성역점,동작구,서울 동작구 사당로17가길 13 (사당동),37.48380170000000,126.97343210000000
213,STARBUCKS,합정,마포구,"서울특별시 마포구 월드컵로1길 14 (합정동) 마포한강푸르지오 110, 111, 112-2",37.54963000000000,126.91299900000000,828,EDIYA,노들점,동작구,서울 동작구 노량진로 200 (노량진동),37.51289510000000,126.94790980000000
214,STARBUCKS,서강대흥역,마포구,서울특별시 마포구 백범로 89-5 (대흥동),37.54817800000000,126.94157600000000,829,EDIYA,노량진CTS점,동작구,서울 동작구 노량진로 110 (노량진동),37.51319990000000,126.93802390000000
215,STARBUCKS,서교동사거리,마포구,서울특별시 마포구 양화로 105 (서교동),37.55337600000000,126.91856400000000,830,EDIYA,노량진드림스퀘어점,동작구,"서울 동작구 노들로2길 7 (노량진동, 노량진 드림스퀘어 복합빌딩)",37.51408199999999,126.94168700000000
216,STARBUCKS,상암사보이시티,마포구,서울특별시 마포구 월드컵북로54길 17 (상암동),37.58147000000000,126.88898300000000,831,EDIYA,노량진역사점,동작구,"서울 동작구 노량진로 지하 130 (노량진동, 9호선 노량진역)",37.51250770000000,126.94671970000000
217,STARBUCKS,신촌오거리,마포구,서울특별시 마포구 신촌로16길 10 (노고산동),37.55513700000000,126.93469400000000,832,EDIYA,대림성모점,동작구,서울 동작구 시흥대로 658 (신대방동),37.49035700000000,126.90810790000000
218,STARBUCKS,상암디지털큐브,마포구,서울특별시 마포구 상암산로 34,37.57631320000000,126.88924770000000,833,EDIYA,대방역점,동작구,"서울 동작구 노량진로 24 (대방동, 한신빌딩)",37.51287380000000,126.92819810000000
219,STARBUCKS,상수역,마포구,서울특별시 마포구 독막로 88 (상수동),37.54748170000000,126.92321579999998,834,EDIYA,보라매공원점,동작구,서울 동작구 여의대방로 90 (신대방동),37.49681600000000,126.91666810000000
220,STARBUCKS,공덕오거리,마포구,서울특별시 마포구 마포대로 86 (도화동) 창강빌딩,37.54246410000000,126.95057730000008,835,EDIYA,보라매점,동작구,"서울 동작구 보라매로5가길 16 (신대방동, 보라매아카데미타워)",37.49129300000000,126.92406030000000
221,STARBUCKS,서강대,마포구,서울특별시 마포구 백범로 23 (신수동),37.55245840000000,126.93782620000000,836,EDIYA,사당역점,동작구,서울 동작구 동작대로7길 100 (사당동),37.47716760000000,126.97754040000000
222,STARBUCKS,상암MBC,마포구,서울특별시 마포구 성암로 267 (상암동),37.58129700000000,126.89090800000000,837,EDIYA,사당점,동작구,서울 동작구 동작대로 45 (사당동),37.48074670000000,126.98150200000000
223,STARBUCKS,동교,마포구,"서울특별시 마포구 월드컵북로 22, 영준빌딩 1층 (동교동)",37.55692800000000,126.91981900000000,838,EDIYA,상도역점,동작구,서울 동작구 상도로 277 (상도1동),37.50275560000000,126.94838080000000
224,STARBUCKS,애오개역,마포구,"서울특별시 마포구 마포대로 201, 마포트라팰리스II (아현동)",37.55218737000000,126.95552030000000,839,EDIYA,상도중앙점,동작구,서울 동작구 만양로 17 (상도동),37.50622720000000,126.94720750000000
225,STARBUCKS,상암DMC,마포구,"서울특별시 마포구 월드컵북로 375, DMC이안오피스텔1단지 102호,202호 (상암동)",37.57762300000000,126.89068400000000,840,EDIYA,신대방삼거리점,동작구,서울 동작구 상도로 78 (대방동),37.51457750000000,126.93228950000000
226,STARBUCKS,마포일진빌딩,마포구,"서울특별시 마포구 마포대로 45, 일진빌딩 1층 (도화동)",37.54043451000000,126.94631680000000,841,EDIYA,신상도초교점,동작구,서울 동작구 양녕로 183 (상도동),37.49773340000001,126.94316570000000
227,STARBUCKS,마포아크로,마포구,서울특별시 마포구 마포대로 68 (도화동) 마포아크로타워,37.54145556000000,126.94881900000000,842,EDIYA,중앙대점,동작구,서울 동작구 흑석로 79 (흑석동),37.50704930000000,126.95840910000000
228,STARBUCKS,홍대삼거리,마포구,서울특별시 마포구 와우산로 64 (상수동),37.55026600000000,126.92317900000000,843,EDIYA,중앙대후문점,동작구,서울 동작구 흑석로 20 (상도동),37.50481520000000,126.95303380000000
229,STARBUCKS,망원역,마포구,서울특별시 마포구 월드컵로 74 (서교동),37.55582900000000,126.91063700000000,844,EDIYA,총신대입구역점,동작구,서울 동작구 동작대로 119-1 (사당동),37.48735569999999,126.98188140000000
230,STARBUCKS,마포이마트,마포구,서울특별시 마포구 백범로 212 (신공덕동) 마포이마트,37.54242100000000,126.95334100000000,845,EDIYA,총신대점,동작구,"서울 동작구 사당로16가길 96 (사당동) 1,2층",37.48509340000000,126.96880330000000
231,STARBUCKS,합정메세나몰,마포구,"서울특별시 마포구 양화로 45 (서교동, 메세나폴리스)",37.55100400000000,126.91384800000000,846,EDIYA,해군회관점,동작구,서울 동작구 여의대방로 194 (대방동),37.50426190000000,126.92226180000000
232,STARBUCKS,아현역대로,마포구,서울특별시 마포구 신촌로 262 (아현동),37.55709700000000,126.95483400000000,847,EDIYA,흑석역점,동작구,서울 동작구 현충로 100-1 (흑석동),37.50764420000000,126.96473750000000
233,STARBUCKS,디지털미디어시티역,마포구,서울특별시 마포구 성암로 179 (상암동),37.57609000000000,126.89897000000000,848,EDIYA,공덕롯데캐슬점,마포구,"서울 마포구 마포대로 109 (공덕동, 롯데캐슬프레지던트)",37.54860190000000,126.95883450000000
234,STARBUCKS,홍대역8번출구,마포구,서울특별시 마포구 양화로 166 (동교동),37.55674350359900,126.92416654360800,849,EDIYA,공덕점,마포구,서울 마포구 마포대로8길 15 (공덕동),37.54870590000001,126.95909570000000
235,STARBUCKS,합정푸르지오,마포구,"서울특별시 마포구 월드컵로3길 14 (합정동, 마포 한강 2차 푸르지오)",37.55109819950203,126.91230706916590,850,EDIYA,광흥창역점,마포구,"서울 마포구 창전로 45 (창전동, 서강한화오벨리스크)",37.54654230000000,126.93179480000000
236,STARBUCKS,홍대동교,마포구,서울특별시 마포구 양화로 192 (동교동),37.55832805333290,126.92624650187600,851,EDIYA,마포공덕역점,마포구,서울 마포구 새창로 6 (도화동),37.54209570000000,126.95045920000000
237,STARBUCKS,망원한강공원,마포구,서울특별시 마포구 마포나루길 435 (망원동),37.55456250000000,126.89568750000000,852,EDIYA,마포구청점,마포구,서울 마포구 월드컵로 196 (성산동),37.56444340000000,126.90611730000000
238,STARBUCKS,홍대역,마포구,"서울특별시 마포구 양화로 165, 상진빌딩 1층 (동교동)",37.55717500000000,126.92365400000000,853,EDIYA,마포성산시영점,마포구,서울 마포구 월드컵북로 210 (성산동),37.56084480000000,126.91684100000000
239,STARBUCKS,가재울뉴타운,서대문구,"서울특별시 서대문구 가재울미래로 2 (남가좌동, DMC파크뷰자이)",37.57498410000000,126.91644410000000,854,EDIYA,마포점,마포구,서울 마포구 도화길 10 (도화동),37.53978820000000,126.94735430000000
240,STARBUCKS,남가좌사거리,서대문구,"서울특별시 서대문구 거북골로 84 (남가좌동, DMC에코자이104동)",37.57738600000000,126.92081500000000,855,EDIYA,망리단길점,마포구,"서울 마포구 포은로 81-1 (망원동, S-빌딩)",37.55431700000000,126.90526840000000
241,STARBUCKS,신촌역,서대문구,서울특별시 서대문구 신촌로 73 (창천동),37.55616700000000,126.93467300000000,856,EDIYA,망원역점,마포구,서울 마포구 월드컵로 82-1 (서교동),37.55637560000000,126.91021930000000
242,STARBUCKS,연희동,서대문구,서울특별시 서대문구 연희로 97 (연희동),37.56670200000000,126.93047500000000,857,EDIYA,망원중앙점,마포구,서울 마포구 월드컵로 147 (망원동),37.56077200000001,126.90543660000000
243,STARBUCKS,아현역,서대문구,"서울특별시 서대문구 신촌로35길 10 (북아현동, e편한세상신촌 4단지)",37.55842100000000,126.95634900000000,858,EDIYA,상수역점,마포구,서울 마포구 와우산로 41-1 (상수동),37.54824830000000,126.92278120000000
244,STARBUCKS,홍제역,서대문구,서울특별시 서대문구 통일로 451 (홍제동),37.58865800000000,126.94386400000000,859,EDIYA,상암DMC점,마포구,서울 마포구 월드컵북로 396 (상암동),37.57940600000000,126.89041940000000
245,STARBUCKS,연세백양로,서대문구,서울특별시 서대문구 연세로 50 (신촌동) 연세대학교,37.56264400000000,126.93752900000000,860,EDIYA,상암KBS점,마포구,서울 마포구 월드컵북로 375 (상암동),37.57754000000001,126.89062000000000
246,STARBUCKS,연희DT,서대문구,서울특별시 서대문구 연희로 144 (연희동),37.57021430000000,126.93397770000000,861,EDIYA,상암한샘점,마포구,서울 마포구 성암로13길 58 (상암동),37.57569800000000,126.89772640000000
247,STARBUCKS,경기대,서대문구,서울특별시 서대문구 충정로 53 (충정로2가),37.56367995000000,126.96460450000000,862,EDIYA,상암홈플러스점,마포구,서울 마포구 월드컵로 240 (성산동),37.55927620000000,126.91387510000000
248,STARBUCKS,신촌,서대문구,서울특별시 서대문구 연세로 10-1 (창천동),37.55648577000000,126.93711550000000,863,EDIYA,성산점,마포구,서울 마포구 월드컵북로 137 (성산동),37.56749960000000,126.91020950000000
249,STARBUCKS,이대R,서대문구,서울특별시 서대문구 이화여대길 34 (대현동),37.55848315000000,126.94596430000000,864,EDIYA,성산중앙점,마포구,서울 마포구 성미산로 78 (성산동),37.56031309999999,126.91666400000000
250,STARBUCKS,연세종합관,서대문구,"서울특별시 서대문구 연세로 50, 연세세브란스 종합관 (신촌동)",37.56177145000000,126.94147080000000,865,EDIYA,신촌그랑자이점,마포구,"서울 마포구 대흥로 183 (대흥동, 신촌그랑자이 상가)",37.55501010000000,126.94541020000000
251,STARBUCKS,이대ECC,서대문구,서울특별시 서대문구 이화여대길 52 (대현동) 이화여자대학교 B415호,37.56163100000000,126.94735000000000,866,EDIYA,신촌로터리점,마포구,서울 마포구 서강로 135 (노고산동),37.55438650000000,126.93778060000000
252,STARBUCKS,연대,서대문구,서울특별시 서대문구 연세로 35 (창천동),37.55870600000000,126.93672700000000,867,EDIYA,신촌숲아이파크점,마포구,"서울 마포구 광성로 17 (신수동, 신촌숲아이파크)",37.54997970000000,126.93497900000000
253,STARBUCKS,신촌아트레온,서대문구,서울특별시 서대문구 신촌로 129 (창천동),37.55650500000000,126.94023800000000,868,EDIYA,신촌하나로마트점,마포구,"서울 마포구 신촌로 66 (노고산동, 농협중앙회)",37.55438650000000,126.93778060000000
254,STARBUCKS,충정로역,서대문구,서울특별시 서대문구 충정로 23,37.56137000000000,126.96321900000000,869,EDIYA,애오개역점,마포구,서울 마포구 마포대로 208 (아현동),37.55250300000000,126.95683780000000
255,STARBUCKS,연대동문,서대문구,서울특별시 서대문구 성산로 565 (대신동),37.56638500000000,126.94627300000000,870,EDIYA,오벨리스크점,마포구,"서울 마포구 마포대로 33 (도화동, 마포 한화 오벨리스크)",37.53976040000001,126.94514050000000
256,STARBUCKS,신촌명물거리,서대문구,"서울특별시 서대문구 명물길 24, 1-5층 (창천동)",37.55779600000000,126.93809500000000,871,EDIYA,한강공원로점,마포구,서울 마포구 망원로 21 (망원동),37.55636230000000,126.89940300000000
257,STARBUCKS,충정타워,서대문구,"서울특별시 서대문구 서소문로 21, 충정타워빌딩 1층 (충정로3가)",37.55986900000000,126.96411000000000,872,EDIYA,합정LIG점,마포구,서울 마포구 양화로1길 21 (합정동),37.54953430000000,126.91034710000000
258,STARBUCKS,이대역,서대문구,서울특별시 서대문구 신촌로 183 (대현동),37.55708610000000,126.94628020000000,873,EDIYA,합정동점,마포구,서울 마포구 양화로6길 90 (합정동),37.54823690000000,126.91907990000000
259,STARBUCKS,북가좌DT,서대문구,서울특별시 서대문구 응암로 85 (북가좌동),37.58075800000000,126.91147800000000,874,EDIYA,합정역사거리점,마포구,서울 마포구 독막로2길 5 (합정동),37.54827280000000,126.91484120000000
260,STARBUCKS,현대신촌,서대문구,서울특별시 서대문구 신촌로 83 (창천동),37.55608305795150,126.93584487650900,875,EDIYA,합정역점,마포구,서울 마포구 양화로11길 54 (서교동),37.55230000000000,126.91383400000000
261,STARBUCKS,방배로,서초구,서울특별시 서초구 방배로 52 (방배동),37.47934340000000,126.99949680000000,876,EDIYA,합정홈플러스점,마포구,"서울 마포구 양화로 45 (서교동, 메세나폴리스)",37.55091080000000,126.91376040000000
262,STARBUCKS,강남교보타워R,서초구,서울특별시 서초구 강남대로 465 (서초동),37.50378900000000,127.02407500000000,877,EDIYA,홍대중앙점,마포구,서울 마포구 양화로 124 (서교동),37.55427820000000,126.92086060000000
263,STARBUCKS,방배다이치빌딩,서초구,서울특별시 서초구 방배로 114 (방배동),37.48432900000000,126.99587200000000,878,EDIYA,홍대청기와점,마포구,서울 마포구 월드컵북로 7 (서교동),37.55561429999999,126.92067040000000
264,STARBUCKS,센트럴F1,서초구,서울특별시 서초구 신반포로 176 (반포동),37.50514800000000,127.00439500000000,879,EDIYA,가재울점,서대문구,"서울 서대문구 수색로 100 (북가좌동, DMC래미안e편한세상)",,
265,STARBUCKS,서초역이화빌딩,서초구,서울특별시 서초구 반포대로21길 3 (서초동),37.48793100000000,127.00912600000000,880,EDIYA,가재울중앙점,서대문구,"서울 서대문구 가재울미래로 2 (남가좌동, DMC파크뷰자이)",37.57400810000001,126.91502310000000
266,STARBUCKS,서초구청,서초구,서울특별시 서초구 남부순환로 2557 (서초동),37.48420600000000,127.03010300000000,881,EDIYA,명지대점,서대문구,서울 서대문구 거북골로 35 (남가좌동),37.57934789999999,126.92392520000000
267,STARBUCKS,서초우성사거리,서초구,서울특별시 서초구 강남대로 343 (서초동),37.49354500000000,127.02943000000000,882,EDIYA,명지전문대점,서대문구,서울 서대문구 가좌로 140 (홍은동),37.58456440000000,126.92418850000000
268,STARBUCKS,이수역사거리,서초구,"서울특별시 서초구 서초대로 3-4 (방배동, 방배디오슈페리움1)",37.48585000000000,126.98302700000000,883,EDIYA,무악재역점,서대문구,서울 서대문구 홍제동 ,37.59288680000000,126.94890570000000
269,STARBUCKS,강남대로신사,서초구,서울특별시 서초구 강남대로 595 (잠원동),37.51489000000000,127.01946900000000,884,EDIYA,북가좌동점,서대문구,서울 서대문구 증가로 257 (북가좌동),37.58345120000000,126.91153320000000
270,STARBUCKS,서울고속터미널,서초구,서울특별시 서초구 신반포로 194 (반포동),37.50440600000000,127.00564800000000,885,EDIYA,서대문구청점,서대문구,서울 서대문구 연희로 237 (연희동),37.57823010000000,126.93569430000000
271,STARBUCKS,강남대로논현R,서초구,서울특별시 서초구 강남대로85길 5 (반포동),37.50741300000000,127.02256800000000,886,EDIYA,서대문점,서대문구,서울 서대문구 냉천동,37.56681210000000,126.96235260000000
272,STARBUCKS,방배,서초구,서울특별시 서초구 방배로 211,37.49191400000000,126.99049739999998,887,EDIYA,신촌기차역점,서대문구,서울 서대문구 신촌역로 35 (창천동),37.55895450000000,126.94147100000000
273,STARBUCKS,방배카페거리,서초구,서울특별시 서초구 방배중앙로 162 (방배동),37.49347670000000,126.98652970000000,888,EDIYA,신촌역점,서대문구,서울 서대문구 신촌로 87-20 (창천동),37.56063190000000,126.93401320000000
274,STARBUCKS,서초법원,서초구,서울특별시 서초구 서초대로 274 (서초동),37.49297000000000,127.01187500000000,889,EDIYA,연남동점,서대문구,서울 서대문구 연희로 42 (연희동),37.56235990000000,126.92789480000000
275,STARBUCKS,청계산입구역,서초구,서울특별시 서초구 청계산로 203 (신원동),37.44732300000000,127.05625000000000,890,EDIYA,연세대점,서대문구,서울 서대문구 연세로12길 10 (창천동),37.55886030000000,126.93752580000000
276,STARBUCKS,사당로데오,서초구,서울특별시 서초구 방배천로 5-4(방배동),37.47727520000000,126.98216049999996,891,EDIYA,연희삼거리점,서대문구,서울 서대문구 연희로 117 (연희동),37.56830550000000,126.93184150000000
277,STARBUCKS,파미에파크R,서초구,서울특별시 서초구 사평대로 205 (반포동) CENTRALCITY,37.50305210000000,127.00436200000000,892,EDIYA,이화여대점,서대문구,"서울 서대문구 이화여대길 26 (대현동, 이화빌딩)",37.55796610000000,126.94609090000000
278,STARBUCKS,양재역,서초구,서울특별시 서초구 강남대로 202 (양재동) 모산빌딩,37.48204750000000,127.03676820000000,893,EDIYA,충정로3가점,서대문구,"서울 서대문구 경기대로 26-26 (충정로3가, 더스타일하우스디센트럴)",37.56130010000000,126.96225900000000
279,STARBUCKS,논현역,서초구,서울특별시 서초구 강남대로 557 (잠원동) 1~2층,37.51119830000000,127.02058750000000,894,EDIYA,홍은사거리점,서대문구,"서울 서대문구 통일로 510 (홍은동, 북한산 더샵)",37.59338230000000,126.94161720000000
280,STARBUCKS,이수역,서초구,서울특별시 서초구 동작대로 112 (방배동),37.48646640000000,126.98274029999993,895,EDIYA,강남센트럴시티점,서초구,"서울 서초구 신반포로 176 (반포동, 센트럴시티)",37.50412990000000,127.00306920000000
281,STARBUCKS,내방역,서초구,서울특별시 서초구 방배로 184 (방배동) 대풍빌딩,37.49000400000000,126.99245500000000,896,EDIYA,교대역점,서초구,"서울 서초구 서초대로56길 22 (서초동, 성운빌딩)",37.49771020000000,126.99780290000000
282,STARBUCKS,서초파라곤,서초구,서울특별시 서초구 서초대로74길 29 (서초동) 서초파라곤,37.49494100000000,127.02742200000000,897,EDIYA,교육개발원사거리점,서초구,"서울 서초구 바우뫼로 180 (양재동, 신송빌딩)",37.47871330000000,127.03902160000000
283,STARBUCKS,서울아트센터,서초구,서울특별시 서초구 남부순환로 2395 (서초동) 호경빌딩,37.48086600000000,127.01236800000000,898,EDIYA,국립국악원점,서초구,"서울 서초구 남부순환로 2364 (서초동, 국립국악원)",37.47775920000000,127.00830430000000
284,STARBUCKS,서초중앙로,서초구,서울특별시 서초구 서초중앙로 225,37.50169100000000,127.01152000000000,899,EDIYA,국립중앙도서관디지털관점,서초구,"서울 서초구 반포대로 201 (반포동, 국립중앙도서관)",37.49768900000000,127.00283330000000
285,STARBUCKS,센트럴시티,서초구,서울특별시 서초구 신반포로 176 (반포동),37.50470700000000,127.00445900000000,900,EDIYA,국립중앙도서관본관점,서초구,"서울 서초구 반포대로 201 (반포동, 국립중앙도서관)",37.49768900000000,127.00283330000000
286,STARBUCKS,강남삼성타운,서초구,서울특별시 서초구 서초대로78길 24 (서초동),37.49562035000000,127.02771440000000,901,EDIYA,남부터미널점,서초구,서울 서초구 서초동 ,37.48838690000000,127.01679540000000
287,STARBUCKS,방배역,서초구,서울특별시 서초구 방배로 84 (방배동),37.48200755000000,126.99764380000000,902,EDIYA,내방역점,서초구,"서울 서초구 서초대로 108 (방배동, 삼보빌딩)",37.49654420000000,127.02477250000000
288,STARBUCKS,반포역,서초구,서울특별시 서초구 신반포로 257 (잠원동) 신반포11차상가,37.50858900000000,127.01195900000000,903,EDIYA,반포지하상가점,서초구,"서울 서초구 신반포로 지하 200 (잠원동, 강남터미널지하쇼핑몰)",37.50549820000000,127.00115120000000
289,STARBUCKS,남부터미널,서초구,"서울특별시 서초구 서초중앙로 26, 래미안서초유니빌 1층 101호 (서초동)",37.48467334000000,127.01694640000000,904,EDIYA,방배백석점,서초구,서울 서초구 방배로 42 (방배동),37.47870610000000,126.99980680000000
290,STARBUCKS,뉴코아강남,서초구,서울특별시 서초구 잠원로 69 (잠원동) 킴스클럽,37.51031339000000,127.00695820000000,905,EDIYA,방배역점,서초구,서울 서초구 방배로 87 (방배동),37.48217910000000,126.99688650000000
291,STARBUCKS,강남2,서초구,"서울특별시 서초구 서초대로77길 27, 유빌딩 1,2층 (서초동)",37.50008750000000,127.02549090000002,906,EDIYA,방배중앙점,서초구,"서울 서초구 동광로 1 (방배동, 대양빌딩)",37.49107210000000,126.98302540000000
292,STARBUCKS,교대,서초구,서울특별시 서초구 서초중앙로 118 (서초동),37.49236110000000,127.01422070000000,907,EDIYA,서울고속버스터미널점,서초구,"서울 서초구 신반포로 194 (반포동, 강남고속버스터미널)",37.50612300000000,127.00384600000000
293,STARBUCKS,하이브랜드,서초구,"서울특별시 서초구 매헌로 16, 리빙관 101호 (양재동)",37.46330766000000,127.03684470000000,908,EDIYA,서울교대점,서초구,서울 서초구 서초동 ,37.48838690000000,127.01679540000000
294,STARBUCKS,신논현역,서초구,서울특별시 서초구 강남대로 483 (반포동) 청호빌딩,37.50529000000000,127.02363600000000,909,EDIYA,서초법조타운점,서초구,"서울 서초구 서초중앙로24길 7 (서초동, 동천빌딩)",37.49478620000000,127.01449960000000
295,STARBUCKS,영동2교,서초구,"서울특별시 서초구 논현로 139, 대흥빌딩 (양재동)",37.48203954000000,127.04257480000000,910,EDIYA,서초역점,서초구,서울 서초구 서초동 ,37.48838690000000,127.01679540000000
296,STARBUCKS,남부터미널2,서초구,서울특별시 서초구 효령로 274 (서초동),37.48436736000000,127.01421920000000,911,EDIYA,서초우면중앙점,서초구,"서울 서초구 양재대로2길 100-11 (우면동, 서초 리슈빌S)",37.45620770000000,127.01620330000000
297,STARBUCKS,서래마을입구,서초구,서울특별시 서초구 서래로 48 (반포동),37.49925284000000,126.99848010000000,912,EDIYA,서초점,서초구,서울 서초구 서초대로48길 16 (서초동),37.49205460000000,127.01133480000000
298,STARBUCKS,몬테소리,서초구,서울특별시 서초구 강남대로 399 (서초동),37.49826950000000,127.02686500000000,913,EDIYA,신사멀버리힐스점,서초구,서울 서초구 강남대로 589 (잠원동),37.51438730000000,127.01915000000000
299,STARBUCKS,서초역,서초구,서울특별시 서초구 반포대로 118 (서초동),37.49067495000000,127.00861180000000,914,EDIYA,양재언남점,서초구,"서울 서초구 동산로 60 (양재동, 화성빌딩)",37.46854769999999,127.02780080000000
300,STARBUCKS,교대법원,서초구,서울특별시 서초구 서초중앙로 164 (서초동),37.49632900000000,127.01333600000000,915,EDIYA,양재점,서초구,서울 서초구 남부순환로347길 38 (서초동),37.48603920000000,127.03149020000000
301,STARBUCKS,강남GT타워,서초구,"서울특별시 서초구 서초대로 411, GT타워 (서초동)",37.49805600000000,127.02583300000003,916,EDIYA,양재중앙점,서초구,"서울 서초구 강남대로 221 (양재동, 양재역 환승주차장)",37.47854670000000,127.04132690000000
302,STARBUCKS,서초동,서초구,"서울특별시 서초구 남부순환로339길 64, 현우빌딩 1층 (서초동)",37.48594100000000,127.02152500000000,917,EDIYA,양재하나로마트점,서초구,"서울 서초구 청계산로 10 (양재동, 농협하나로클럽)",37.46279880000000,127.04386750000000
303,STARBUCKS,서울교대,서초구,"서울특별시 서초구 서초중앙로 64, 1층 (서초동)",37.48739700000000,127.01513400000000,918,EDIYA,예술의전당점,서초구,"서울 서초구 반포대로 32 (서초동, 원일빌딩)",37.48337890000000,127.01210740000000
304,STARBUCKS,강남에비뉴,서초구,"서울특별시 서초구 서초대로77길 62, 강남역아이파크 B102~B105 (서초동)",37.50270000000000,127.02389400000000,919,EDIYA,우면동점,서초구,"서울 서초구 바우뫼로 20 (우면동, 고호빌딩)",37.46996410000000,127.02530100000000
305,STARBUCKS,반포자이,서초구,서울특별시 서초구 잠원로 24 (반포동),37.50717047534941,127.00991890834830,920,EDIYA,잠원논현점,서초구,서울 서초구 신반포로 333 (잠원동),37.51091800000000,127.02006920000000
306,STARBUCKS,강남역우송빌딩,서초구,서울특별시 서초구 서초대로73길 7 (서초동),37.49813146014130,127.02527908458000,921,EDIYA,청계산입구역점,서초구,서울 서초구 신원동,37.44417420000000,127.06214500000000
307,STARBUCKS,서이초교사거리,서초구,서울특별시 서초구 사임당로 143 (서초동),37.49181460000000,127.02522520000000,922,EDIYA,포이점,서초구,서울 서초구 마방로10길 42 (양재동),37.47565220000000,127.04455970000000
308,STARBUCKS,서울웨이브아트센터,서초구,서울특별시 서초구 잠원로 145-35 (잠원동),37.51880700000000,127.00704000000000,923,EDIYA,함지박사거리점,서초구,서울 서초구 방배로 234 우신빌딩,37.47807380000000,127.00071980000000
309,STARBUCKS,교대역,서초구,서울특별시 서초구 서초중앙로 138 (서초동) 우림빌딩,37.49420700000000,127.01394000000000,924,EDIYA,고대개운점,성북구,서울 성북구 개운사길 30 (안암동5가),37.58769040000000,127.02943560000000
310,STARBUCKS,길음역,성북구,서울특별시 성북구 정릉로 376 (돈암동),37.60213900000000,127.02527100000000,925,EDIYA,고대점,성북구,서울 성북구 고려대로24길 35 (안암동5가),37.58468380000000,127.02955620000000
311,STARBUCKS,미아이마트,성북구,서울특별시 성북구 도봉로 17 (길음동),37.61067800000000,127.02992100000000,926,EDIYA,길음뉴타운점,성북구,"서울 성북구 길음로 74 (길음동, 길음 에스에이치빌)",37.60968510000000,127.02071040000000
312,STARBUCKS,종암DT,성북구,서울특별시 성북구 종암로 17 (종암동),37.59195250000000,127.03604010000000,927,EDIYA,돈암동점,성북구,서울 성북구 동소문로 119 (동선동4가),37.59436330000000,127.01853130000000
313,STARBUCKS,미아,성북구,서울특별시 성북구 동소문로 314 (하월곡동),37.60758100000000,127.02930300000000,928,EDIYA,돈암아리랑점,성북구,"서울 성북구 아리랑로 75 (돈암동, 돈암코오롱하늘채)",37.59910680000000,127.01379480000000
314,STARBUCKS,성신여대정문,성북구,서울특별시 성북구 보문로34길 62 (동선동2가),37.59091000000000,127.01880000000000,929,EDIYA,돌곶이역점,성북구,서울 성북구 돌곶이로22길 3 (석관동),37.61020710000000,127.05810310000000
315,STARBUCKS,종암,성북구,서울특별시 성북구 종암로 122 (종암동),37.60109500000000,127.03384700000000,930,EDIYA,동덕여대점,성북구,서울 성북구 화랑로 99 (하월곡동),37.60561100000000,127.03801820000000
316,STARBUCKS,삼선교,성북구,서울특별시 성북구 동소문로 10 (동소문동2가),37.58869600000000,127.00732070000003,931,EDIYA,동소문동점,성북구,서울 성북구 동소문로13길 5 (동소문동4가),37.59204520000000,127.01287510000000
317,STARBUCKS,월곡역,성북구,"서울특별시 성북구 화랑로 76, 101-1호 (하월곡동)",37.60171800000000,127.04044600000000,932,EDIYA,보문역점,성북구,서울 성북구 보문로 111 (보문동2가),37.58488090000001,127.01916830000000
318,STARBUCKS,고대,성북구,서울특별시 성북구 고려대로24길 51 (안암동5가),37.58397192000000,127.02973520000000,933,EDIYA,석계중앙점,성북구,서울 성북구 화랑로40길 61 (석관동),37.60737240000000,127.06311940000000
319,STARBUCKS,현대미아,성북구,서울특별시 성북구 동소문로 315 (길음동) 지하1층,37.60837822000000,127.02874830000000,934,EDIYA,석관동점,성북구,"서울 성북구 돌곶이로8길 22 (석관동, 래미안아트리치)",37.60610300000000,127.06342290000000
320,STARBUCKS,성신여대,성북구,서울특별시 성북구 동소문로24길 12 (동선동1가),37.59313500000000,127.01837900000000,935,EDIYA,성신여대역점,성북구,서울 성북구 동소문로17길 40 (동소문동6가),37.59394370000000,127.01592840000000
321,STARBUCKS,안암역,성북구,서울특별시 성북구 고려대로 102-2 (안암동5가),37.58631900000000,127.03055600000000,936,EDIYA,성신여대점,성북구,서울 성북구 보문로34길 100 (동선동2가),37.59120290000000,127.02079090000000
322,STARBUCKS,한성대입구역,성북구,서울특별시 성북구 성북로 11 (성북동1가),37.58905400000000,127.00483900000000,937,EDIYA,안암래미안점,성북구,서울 성북구 보문로30가길 42 (안암동1가),37.58899940000000,127.02202050000000
323,STARBUCKS,고대안암병원,성북구,서울특별시 성북구 고려대로 73 (안암동5가),37.58687889805418,127.02820333331364,938,EDIYA,월곡1동점,성북구,서울 성북구 오패산로 99 (하월곡동),37.61075770000000,127.03513050000000
324,STARBUCKS,장위뉴타운,성북구,서울특별시 성북구 장월로38길 4 (장위동),37.61795689659980,127.05153570977800,939,EDIYA,월곡동아점,성북구,서울 성북구 장월로1길 47 (상월곡동),37.60619730000000,127.04578430000000
325,STARBUCKS,송파나루역DT,송파구,서울특별시 송파구 오금로 142 (송파동),37.51079300000000,127.11026580000000,940,EDIYA,장위2동점,성북구,서울 성북구 화랑로25길 14 (장위동),37.61474040000000,127.06035510000000
326,STARBUCKS,송파헬리오시티,송파구,"서울특별시 송파구 송파대로 345 (가락동, 헬리오시티)",37.49785630000000,127.10313250000000,941,EDIYA,장위뉴타운점,성북구,서울 성북구 장월로 144-1 (장위동),37.61765910000000,127.05102320000000
327,STARBUCKS,잠실시그마타워,송파구,서울특별시 송파구 올림픽로 289 (신천동),37.51456700000000,127.10249300000000,942,EDIYA,장위동점,성북구,서울 성북구 월계로40길 7 (장위동),37.62293470000000,127.04846060000000
328,STARBUCKS,문정법원로R,송파구,서울특별시 송파구 송파대로 201 (문정동),37.48744700000000,127.11916400000000,943,EDIYA,장위북서울꿈의숲점,성북구,서울 성북구 돌곶이로41가길 2 (장위동),37.61864440000000,127.04561080000000
329,STARBUCKS,송파개롱역,송파구,서울특별시 송파구 오금로 420 (가락동),37.49695600000000,127.13652000000000,944,EDIYA,장위중앙점,성북구,서울 성북구 장위로 35 (장위동),37.61446150000000,127.04077820000000
330,STARBUCKS,문정하비오,송파구,"서울특별시 송파구 송파대로 111 (문정동, 파크하비오) 204동 104호~107호",37.48192500000000,127.12344600000000,945,EDIYA,정릉중앙점,성북구,서울 성북구 정릉로 251 (정릉동),37.60471920000000,127.01196500000000
331,STARBUCKS,문정역,송파구,"서울특별시 송파구 송파대로 167 (문정동)테라타워 B동 137호~139호,204호",37.48481300000000,127.12223700000000,946,EDIYA,종암동점,성북구,서울 성북구 종암로 105 (종암동),37.59959670000000,127.03391670000000
332,STARBUCKS,잠실대교남단R,송파구,서울특별시 송파구 송파대로 570 타워 730 1층,37.51551100000000,127.09900600000000,947,EDIYA,하월곡동점,성북구,서울 성북구 오패산로 16 (하월곡동),37.60363180000000,127.03759470000000
333,STARBUCKS,송파위례,송파구,"서울특별시 송파구 위례광장로 230 (장지동, 위례2차아이파크)",37.47826400000000,127.14406700000000,948,EDIYA,한성대역점,성북구,서울 성북구 동소문로 19 (동소문동1가),37.58899690000000,127.00638970000000
334,STARBUCKS,송파방이DT,송파구,서울특별시 송파구 오금로 241 (방이동),37.50656400000000,127.12049500000000,949,EDIYA,한성대점,성북구,서울 성북구 삼선교로 10 (삼선동1가),37.58773390000000,127.00690930000000
335,STARBUCKS,올림픽평화의문,송파구,서울특별시 송파구 위례성대로 38 (방이동) 해태그린피아빌라트,37.51564260000000,127.11648190000005,950,EDIYA,가든파이브점,송파구,"서울 송파구 충민로 10 (문정동, 가든파이브툴)",37.47841760000000,127.11888770000000
336,STARBUCKS,송파아이파크,송파구,서울특별시 송파구 법원로 55 (문정동),37.47989200000000,127.12237900000000,951,EDIYA,가든파이브테크노관점,송파구,"서울 송파구 충민로 66 (문정동, 가든파이브라이프)",,
337,STARBUCKS,송파사거리,송파구,서울특별시 송파구 송파대로 386 (송파동),37.50227880000000,127.11039040000000,952,EDIYA,가락몰점,송파구,"서울 송파구 양재대로 932 (가락동, 가락몰 판매동)",37.49311600000000,127.11645390000000
338,STARBUCKS,석촌서호,송파구,서울특별시 송파구 석촌호수로 176 (삼전동),37.50639290000000,127.09646840000000,953,EDIYA,가락중앙점,송파구,서울 송파구 송이로 87 (가락동),37.49534590000000,127.12384820000000
339,STARBUCKS,문정로데오,송파구,서울특별시 송파구 동남로 141 (가락동),37.49190500000000,127.12626960000000,954,EDIYA,개롱역점,송파구,"서울 송파구 오금로 407 (오금동, 상아아파트)",37.49772800000000,127.13583500000000
340,STARBUCKS,올림픽훼미리,송파구,서울특별시 송파구 중대로 68 (문정동),37.49162600000000,127.11630800000000,955,EDIYA,거여점,송파구,서울 송파구 오금로 497 (거여동),37.48220960000000,127.14302510000000
341,STARBUCKS,올림픽공원남문,송파구,서울특별시 송파구 위례성대로 102 (방이동),37.51330000000000,127.12311300000000,956,EDIYA,문정KDU타워점,송파구,"서울 송파구 정의로 70 (문정동, 케이디유타워)",37.48234360000000,127.11720560000000
342,STARBUCKS,방이역,송파구,"서울특별시 송파구 마천로 53, 1~2층 (오금동)",37.50866600000000,127.12656900000000,957,EDIYA,문정문현점,송파구,서울 송파구 새말로8길 30 (문정동),37.48014720000000,127.12665190000000
343,STARBUCKS,석촌호수,송파구,서울특별시 송파구 석촌호수로 262 (송파동),37.50958100000000,127.10499300000000,958,EDIYA,문정중앙점,송파구,서울 송파구 문정로 31-1 (문정동),37.48646620000000,127.12633400000000
344,STARBUCKS,잠실푸르지오월드,송파구,"서울특별시 송파구 올림픽로35가길 9, 잠실푸르지오월드마크 1층 (신천동)",37.51764900000000,127.10342600000000,959,EDIYA,문정테라타워점,송파구,"서울 송파구 송파대로 167 (문정동, 문정역테라타워)",37.48476500000000,127.12115690000000
345,STARBUCKS,잠실새내역,송파구,서울특별시 송파구 올림픽로 96 (잠실동),37.51167900000000,127.08106200000000,960,EDIYA,방이시장점,송파구,서울 송파구 백제고분로48길 3 (방이동),37.51186130000000,127.11375760000000
346,STARBUCKS,잠실역,송파구,"서울특별시 송파구 송파대로 562 (신천동, 웰리스타워,삼성웰리스아파트) 1층,2층",37.51527200000000,127.09923100000000,961,EDIYA,방이역점,송파구,서울 송파구 위례성대로18길 32 (방이동),37.50957590000000,127.12471890000000
347,STARBUCKS,갤러리아팰리스,송파구,"서울특별시 송파구 올림픽로 212, 갤러리아 팰리스 (잠실동)",37.51108365000000,127.09380590000000,962,EDIYA,방이초교점,송파구,서울 송파구 가락로 280 (방이동),37.51275620000000,127.12004780000000
348,STARBUCKS,아시아선수촌,송파구,서울특별시 송파구 백제고분로 69 (잠실동),37.51059000000000,127.07904700000000,963,EDIYA,삼전역점,송파구,서울 송파구 백제고분로 263 (삼전동),37.50279120000000,127.09580080000000
349,STARBUCKS,올림픽아파트,송파구,서울특별시 송파구 양재대로 1220 (방이동),37.51531500000000,127.13323700000000,964,EDIYA,삼전중앙점,송파구,서울 송파구 백제고분로27길 5 (삼전동),37.50584140000000,127.08979770000000
350,STARBUCKS,가락본동,송파구,서울특별시 송파구 송파대로30길 13 (가락동),37.49489500000000,127.11878500000000,965,EDIYA,서울삼성내과점,송파구,"서울 송파구 백제고분로 126 (잠실동, 오룡빌딩)",37.50615510000000,127.08076680000000
351,STARBUCKS,석촌역,송파구,"서울특별시 송파구 백제고분로 358, 1층 (석촌동)",37.50426260000000,127.10610769999994,966,EDIYA,석촌백제점,송파구,"서울 송파구 백제고분로39길 15 (석촌동, 삼경빌딩)",37.50287330000000,127.09898680000000
352,STARBUCKS,가락시장역,송파구,"서울특별시 송파구 중대로 121, 롯데캐슬 파인힐 1층 (가락동)",37.49429900000000,127.12135400000000,967,EDIYA,석촌사거리점,송파구,"서울 송파구 송파대로 409 (석촌동, 범양빌딩)",37.50762770000000,127.10815300000000
353,STARBUCKS,가든파이브,송파구,서울특별시 송파구 충민로 10 (문정동) 가든파이브툴,37.47823160000000,127.11937030000001,968,EDIYA,석촌역점,송파구,"서울 송파구 송파대로 456 (송파동, 웅현빌딩)",37.50720400000000,127.10584080000000
354,STARBUCKS,잠실본동,송파구,"서울특별시 송파구 백제고분로 91 (잠실동), 1층",37.50864458854420,127.07949103207000,969,EDIYA,송파문정점,송파구,서울 송파구 송이로 159 (가락동),37.49295690000000,127.12535260000000
355,STARBUCKS,송파NC,송파구,서울특별시 송파구 충민로 66 (문정동)  가든파이브라이프 패션관1층,37.47787610000000,127.12567478000000,970,EDIYA,송파올림픽훼미리타운점,송파구,"서울 송파구 중대로 24 (문정동, 올림픽훼밀리타운 아카데미 상가)",37.48851950000000,127.11437750000000
356,STARBUCKS,송파거여역,송파구,서울특별시 송파구 오금로 493 (거여동),37.49364895715680,127.14369868888800,971,EDIYA,송파위례점,송파구,"서울 송파구 위례광장로 188 (장지동, 아이온스퀘어)",37.48116050000000,127.14232920000000
357,STARBUCKS,몽촌토성역,송파구,서울특별시 송파구 위례성대로 6 (방이동),37.51691300000000,127.11312700000000,972,EDIYA,송파잠실점,송파구,서울 송파구 삼전로 95 (잠실동),37.50699260000000,127.08992190000000
358,STARBUCKS,송파KT,송파구,"서울특별시 송파구 잠실로 209 (신천동), 오피스빌딩 1층 2~4호",37.51399910000000,127.10630260000000,973,EDIYA,송파파인타운점,송파구,"서울 송파구 충민로2길 28 (장지동, 대진플라자2)",37.47729840000000,127.12756860000000
359,STARBUCKS,문정법조타운 한양타워,송파구,서울특별시 송파구 법원로11길 12 (문정동),37.48599091628540,127.11792183157400,974,EDIYA,송파풍납점,송파구,서울 송파구 강동대로9길 17-1 (풍납동),37.52810059999999,127.11654430000000
360,STARBUCKS,송파마천사거리DT,송파구,서울특별시 송파구 거마로 78 (마천동),37.49982900000000,127.14767200000000,975,EDIYA,송파하비오점,송파구,"서울 송파구 송파대로 111 (문정동, 파크하비오)",37.48165560000000,127.12345150000000
361,STARBUCKS,목동파리공원,양천구,서울특별시 양천구 목동동로 377 (목동),37.53533600000000,126.87885200000000,976,EDIYA,송파한양점,송파구,"서울 송파구 가락로 165 (송파동, 위례캐슬빌)",37.50320460000000,127.11784920000000
362,STARBUCKS,등촌역,양천구,서울특별시 양천구 공항대로 566 (목동) 1층 2층,37.54888400000000,126.86807000000000,977,EDIYA,오금점,송파구,"서울 송파구 오금로 306 (가락동, 가락스타클래스)",37.50287860000000,127.12612360000000
363,STARBUCKS,목동행복한,양천구,서울특별시 양천구 목동동로 309 (목동),37.52914700000000,126.87609900000000,978,EDIYA,오금중앙점,송파구,"서울 송파구 위례성대로22길 18 (오금동, 이시돌빌딩)",37.50871130000000,127.13040080000000
364,STARBUCKS,신정DT,양천구,서울특별시 양천구 신월로 341 (신정동),37.52199300000000,126.85886500000000,979,EDIYA,올림픽공원점,송파구,서울 송파구 올림픽로 354 (방이동),37.51567460000000,127.12539150000000
365,STARBUCKS,목동역,양천구,서울특별시 양천구 목동로 203 (신정동) 1층일부,37.52668400000000,126.86398600000000,980,EDIYA,올림픽프라자점,송파구,서울 송파구 양재대로 1222 (방이동),37.51582570000000,127.13221820000000
366,STARBUCKS,목동오목로,양천구,"서울특별시 양천구 오목로 279 (목동) 102,103,104,105호",37.52592300000000,126.86843800000000,981,EDIYA,위례아이파크점,송파구,"서울 송파구 위례광장로 136 (장지동, 위례아이파크)",37.47629600000000,127.14213140000000
367,STARBUCKS,목동8단지,양천구,서울특별시 양천구 목동서로 299 (신정동),37.52051800000000,126.86884100000000,982,EDIYA,위례포레샤인점,송파구,"서울 송파구 위례순환로 477 (장지동, 위례포레샤인23단지)",37.47628080000000,127.13565490000000
368,STARBUCKS,오목교역,양천구,서울특별시 양천구 오목로 354 (목동),37.52358820000000,126.87652120000007,983,EDIYA,잠실본동점,송파구,"서울 송파구 백제고분로 172 (잠실동, 제이케이빌딩)",37.51194230000000,127.08702540000000
369,STARBUCKS,신월IC DT,양천구,서울특별시 양천구 남부순환로 430 (신월동),37.52949840000000,126.83198300000000,984,EDIYA,잠실역점,송파구,"서울 송파구 송파대로 567 (잠실동, 잠실주공아파트)",,
370,STARBUCKS,목동7단지,양천구,서울특별시 양천구 목동서로 213 (목동) 세신비젼프라자,37.52801200000000,126.87053000000000,985,EDIYA,종합운동장역점,송파구,"서울 송파구 올림픽로 76 (잠실동, J타워)",37.51156630000000,127.07902140000000
371,STARBUCKS,목동5단지,양천구,"서울특별시 양천구 목동동로 411, 1동 116호(목동, 부영그린타운3차)",37.53670600000000,126.88212000000000,986,EDIYA,강서초교점,양천구,서울 양천구 오목로 48 (신월동),37.52200520000000,126.84294590000000
372,STARBUCKS,목동,양천구,서울특별시 양천구 목동서로 67 (목동) 우성에펠타운,37.53638383000000,126.87855970000000,987,EDIYA,남부지방법원점,양천구,"서울 양천구 은행정로4길 25 (신정동, SM엘루이아파트)",37.52153830000000,126.86253760000000
373,STARBUCKS,현대목동,양천구,"서울특별시 양천구 목동동로 257 (목동, 현대하이페리온) 지하2층",37.52684800000000,126.87502300000000,988,EDIYA,목3동점,양천구,"서울 양천구 목동중앙북로 38 (목동, 롯데캐슬위너아파트)",37.54688690000000,126.86726110000000
374,STARBUCKS,목동파라곤,양천구,"서울특별시 양천구 목동서로 155, 목동파라곤 1층 (목동)",37.52947000000000,126.87499600000000,989,EDIYA,목4동점,양천구,서울 양천구 목동중앙본로7길 46 (목동),37.53949770000000,126.86613100000000
375,STARBUCKS,목동SBS,양천구,"서울특별시 양천구 목동서로 161 (목동), 1/2층 일부",37.52896162444895,126.87363009594163,990,EDIYA,목동로데오점,양천구,서울 양천구 목동로 219 (신정동),37.52796470000000,126.86381360000000
376,STARBUCKS,목동트라팰리스,양천구,서울특별시 양천구 오목로 299 (목동),37.52550000000000,126.87020000000000,991,EDIYA,목동센트럴아이파크위브점,양천구,서울 양천구 남부순환로 603 (신월동),37.51521060000000,126.84067040000000
377,STARBUCKS,목동10단지,양천구,"서울특별시 양천구 목동서로 401 (신정동, 대림아크로빌), 상가A동 101,101-1호",37.51542561617700,126.85960306799900,992,EDIYA,목동신목점,양천구,"서울 양천구 목동중앙로 85 (목동, 강산아파트)",37.53702030000000,126.87145880000000
378,STARBUCKS,신월동DT,양천구,서울특별시 양천구 남부순환로 319 (신월동),37.53829235305590,126.82710140924300,993,EDIYA,목동신트리점,양천구,"서울 양천구 신정로 312 (신정동, 뉴프라자)",37.51323720000000,126.85553970000000
379,STARBUCKS,타임스퀘어R,영등포구,서울특별시 영등포구 영중로 15 지하 1층 (영등포동4가),37.51755000000000,126.90516000000000,994,EDIYA,목동아델리체점,양천구,"서울 양천구 중앙로43길 14 (신정동, 래미안 목동아델리체)",37.51812730000000,126.85198070000000
380,STARBUCKS,샛강역,영등포구,서울특별시 영등포구 여의대방로 376 (여의도동),37.51835510000000,126.93127160000000,995,EDIYA,목동역점,양천구,서울 양천구 오목로 227 (신정동),37.52607580000000,126.86273430000000
381,STARBUCKS,영등포역,영등포구,서울특별시 영등포구 경인로 870 (영등포동1가),37.51696140000000,126.90913900000000,996,EDIYA,목동파라곤점,양천구,서울 양천구 목동서로 155 (목동),37.52950380000000,126.87516350000000
382,STARBUCKS,당산대로,영등포구,서울특별시 영등포구 양평로 22 (당산동6가),37.53312100000000,126.90380400000000,997,EDIYA,목동파리공원점,양천구,서울 양천구 목동동로 379 (목동),37.53560480000000,126.87875980000000
383,STARBUCKS,여의도IFC몰(L1)R,영등포구,서울특별시 영등포구 국제금융로 10 (여의도동)  지하1층 178호,37.52512700000000,126.92550800000000,998,EDIYA,신월5동점,양천구,서울 양천구 화곡로 50 (신월동),37.53917180000000,126.82743180000000
384,STARBUCKS,여의도KBS R,영등포구,서울특별시 영등포구 의사당대로 26 (여의도동),37.52659600000000,126.91845600000000,999,EDIYA,신월7동점,양천구,서울 양천구 지양로 79 (신월동),37.52242370000000,126.83296300000000
385,STARBUCKS,여의도화재보험,영등포구,서울특별시 영등포구 국제금융로6길 38 (여의도동),37.52134500000000,126.92600400000000,1000,EDIYA,신월사거리점,양천구,서울 양천구 남부순환로 353 (신월동),37.53568110000000,126.82895290000000
386,STARBUCKS,국회대로,영등포구,서울특별시 영등포구 국회대로 786 (여의도동),37.53026000000000,126.91954900000000,1001,EDIYA,신정교점,양천구,서울 양천구 신목로 36 (신정동),37.51886900000000,126.87382360000000
387,STARBUCKS,영등포KT,영등포구,서울특별시 영등포구 영중로 119 (영등포동8가),37.52641900000000,126.90531400000000,1002,EDIYA,신정네거리역점,양천구,서울 양천구 중앙로 282 (신정동),37.52158150000000,126.85264660000000
388,STARBUCKS,여의도공원R,영등포구,서울특별시 영등포구 여의공원로 101 (여의도동),37.52923100000000,126.92487200000000,1003,EDIYA,신정서부점,양천구,서울 양천구 신정로11길 50-15 (신정동),37.51221980000000,126.83834770000000
389,STARBUCKS,국회의사당역,영등포구,서울특별시 영등포구 의사당대로 8 (여의도동),37.52783100000000,126.91688200000000,1004,EDIYA,신정역점,양천구,서울 양천구 오목로 155 (신정동),37.52498280000000,126.85465240000000
390,STARBUCKS,선유도역,영등포구,서울특별시 영등포구 양평로 115 (양평동4가),37.53726800000000,126.89459400000000,1005,EDIYA,양천구청점,양천구,서울 양천구 목동동로 63 (신정동),37.51530850000000,126.86231800000000
391,STARBUCKS,여의도역R,영등포구,서울특별시 영등포구 의사당대로 83 (여의도동) 1층,37.52332800000000,126.92343900000000,1006,EDIYA,오목교대학학원점,양천구,서울 양천구 오목로 319 (목동),37.52508050000000,126.87307520000000
392,STARBUCKS,선유동이레빌딩,영등포구,서울특별시 영등포구 선유동2로 57 (양평제1동) 이레빌딩,37.53410900000000,126.89691200000000,1007,EDIYA,오목교역점,양천구,서울 양천구 신목로 102 (목동),37.52358820000000,126.87583730000000
393,STARBUCKS,동여의도,영등포구,서울특별시 영등포구 국제금융로 86 (여의도동) 롯데캐슬 아이비,37.51994940000000,126.93179570000000,1008,EDIYA,KBS별관점,영등포구,"서울 영등포구 국제금융로8길 27-9 (여의도동, 동북빌딩)",37.51961690000000,126.92895370000000
394,STARBUCKS,여의도ABL타워,영등포구,서울특별시 영등포구 의사당대로 147 (여의도동) 알리안츠타워,37.51874900000000,126.92779000000000,1009,EDIYA,국회대로점,영등포구,"서울 영등포구 국회대로72길 4 (여의도동, 아이비피아빌딩)",37.53030550000000,126.91996340000000
395,STARBUCKS,영등포신길,영등포구,"서울특별시 영등포구 신길로 137 (신길동) 1,2층",37.50456600000000,126.91007300000000,1010,EDIYA,국회의사당역점,영등포구,"서울 영등포구 의사당대로 22 (여의도동, 이룸센터)",37.52682930000000,126.91783000000000
396,STARBUCKS,문래역,영등포구,서울특별시 영등포구 당산로 34 (문래동3가),37.51744600000000,126.89525800000000,1011,EDIYA,남부고용센터점,영등포구,서울 영등포구 양산로 71 (양평동3가),37.52988780000000,126.89251860000000
397,STARBUCKS,당산,영등포구,서울특별시 영등포구 양평로 64 (당산동6가),37.53516400000000,126.89994200000000,1012,EDIYA,당산버드나루점,영등포구,서울 영등포구 버드나루로 87 (영등포동7가),37.52479540000000,126.90731630000000
398,STARBUCKS,여의도한양증권,영등포구,서울특별시 영등포구 국제금융로6길 7 (여의도동) 한양증권,37.52241800000000,126.92909300000000,1013,EDIYA,당산역점,영등포구,"서울 영등포구 당산로 222 (당산동5가, 당산디오빌)",37.53329740000000,126.90223970000000
399,STARBUCKS,여의도일신,영등포구,서울특별시 영등포구 은행로 11 (여의도동) 1층 1부,37.52800000000000,126.92010300000000,1014,EDIYA,당산중앙점,영등포구,서울 영등포구 당산로 159 (당산동4가),37.52905960000000,126.89908220000000
400,STARBUCKS,신세계타임스퀘어B2,영등포구,"서울특별시 영등포구 영중로 9, 신세계타임스퀘어점 리빙관 지하2층 (영등포동4가)",37.51716200000000,126.90560800000000,1015,EDIYA,대림1동점,영등포구,서울 영등포구 도림로 198 (대림동),37.49643720000000,126.90284230000000
401,STARBUCKS,하이테크시티,영등포구,서울특별시 영등포구 경인로 775 (문래동3가) 에이스하이테크시티,37.51467062000000,126.89864740000000,1016,EDIYA,대림3동점,영등포구,서울 영등포구 대림로 212 (대림동),37.49958420000000,126.89818720000000
402,STARBUCKS,여의도,영등포구,서울특별시 영등포구 국제금융로2길 28 (여의도동),37.52403519000000,126.92451790000000,1017,EDIYA,대림역점,영등포구,서울 영등포구 도림로31길 2 (대림동),37.49254740000000,126.89592550000000
403,STARBUCKS,롯데캐슬여의도,영등포구,"서울특별시 영등포구 의사당대로 127 (여의도동, 롯데캐슬엠파이어) 1층 104호",37.52025214000000,126.92636780000000,1018,EDIYA,도림사거리점,영등포구,서울 영등포구 도림로 326 (신길동),37.50658150000000,126.90180010000000
404,STARBUCKS,문래동,영등포구,"서울특별시 영등포구 선유로 64, 대창타운빌 1층 (문래동3가)",37.51960200000000,126.88965200000000,1019,EDIYA,도림점,영등포구,"서울 영등포구 도신로15길 40 (도림동, 도림빌딩)",37.51059260000000,126.90877370000000
405,STARBUCKS,신세계타임스퀘어1F,영등포구,"서울특별시 영등포구 영중로 9, 신세계백화점 리빙관 1층 (영등포동4가)",37.51716200000000,126.90560800000000,1020,EDIYA,라이프점,영등포구,"서울 영등포구 63로 40 (여의도동, 라이프오피스텔)",,
406,STARBUCKS,여의도호성,영등포구,"서울특별시 영등포구 여의대방로65길 24, 호성빌딩 1층 (여의도동)",37.52017600000000,126.92942600000000,1021,EDIYA,보라매역점,영등포구,서울 영등포구 여의대방로 141 (신길동),37.50744760000000,126.91679880000000
407,STARBUCKS,타임스퀘어B2,영등포구,"서울특별시 영등포구 영중로 15, 지하2층 (영등포동4가)",37.51698500000000,126.90338700000000,1022,EDIYA,서여의도점,영등포구,"서울 영등포구 국회대로72길 17 (여의도동, KCC파크타운)",37.52954760000000,126.92122570000000
408,STARBUCKS,영등포본동,영등포구,서울특별시 영등포구 영등포로 254 (영등포동3가),37.51871300000000,126.90955900000000,1023,EDIYA,선유도역점,영등포구,서울 영등포구 양평로 126 (양평동5가),37.54117230000000,126.89443370000000
409,STARBUCKS,타임스퀘어2F,영등포구,서울특별시 영등포구 영중로 15 지상2층 (영등포동4가),37.51698500000000,126.90338700000000,1024,EDIYA,신길성애병원점,영등포구,서울 영등포구 여의대방로53길 27 (신길동),37.51778300000000,126.91728360000000
410,STARBUCKS,여의도의사당,영등포구,서울특별시 영등포구 국회대로74길 12 (여의도동),37.53002300000000,126.92109000000000,1025,EDIYA,신길썬프라자점,영등포구,서울 영등포구 신길로 42 (신길동),37.49647690000000,126.90862710000000
411,STARBUCKS,여의도IFC(1F),영등포구,서울특별시 영등포구 국제금융로 10 (여의도동),37.52527300000000,126.92466800000000,1026,EDIYA,신길아이파크점,영등포구,서울 영등포구 도림로 280 (신길동),37.50294080000000,126.90421560000000
412,STARBUCKS,여의도신한투자증권타워,영등포구,서울특별시 영등포구 여의대로 70 (여의도동),37.52498000000000,126.92414000000000,1027,EDIYA,신길역점,영등포구,서울 영등포구 영등포로 353 (신길동),37.51507080000000,126.91809500000000
413,STARBUCKS,선유도역 1번출구,영등포구,서울특별시 영등포구 양평로 128 (양평동5가)양평로 128,37.53833300000000,126.89361200000000,1028,EDIYA,신길중앙점,영등포구,서울 영등포구 도신로 229 (신길동),37.51219970000000,126.91650530000000
414,STARBUCKS,영등포시장역,영등포구,서울특별시 영등포구 영중로 79 (영등포동7가),37.52347500000000,126.90490700000000,1029,EDIYA,신풍역점,영등포구,서울 영등포구 신풍로 52-1 (신길동),37.49994590000000,126.91179310000000
415,STARBUCKS,영등포구청역,영등포구,서울특별시 영등포구 국회대로 558 ,37.52789000000000,126.89608000000000,1030,EDIYA,양평동2가점,영등포구,"서울 영등포구 선유서로25길 19 (양평동2가, 오목교투웨니퍼스트)",37.52432510000000,126.88373130000000
416,STARBUCKS,서울양평역,영등포구,"서울특별시 영등포구 선유서로24길 6 (양평동1가, 영등포 중흥 S-CLASS)",37.52312800000000,126.88580900000000,1031,EDIYA,여의나루역점,영등포구,서울 영등포구 여의나루로 113 (여의도동),37.52602880000000,126.93075110000000
417,STARBUCKS,영등포시장교차로,영등포구,서울특별시 영등포구 영중로 45 (영등포동6가),37.52042390000000,126.90444600000000,1032,EDIYA,여의도농협재단점,영등포구,"서울 영등포구 국제금융로8길 2 (여의도동, 농협재단빌딩)",37.52198380000000,126.93003100000000
418,STARBUCKS,더현대서울(B2)R,영등포구,서울특별시 영등포구 여의대로 108 (여의도동),37.52640000000000,126.92877000000000,1033,EDIYA,여의도역점,영등포구,"서울 영등포구 의사당대로 108 (여의도동, 아일렉스)",37.52102360000000,126.92401160000000
419,STARBUCKS,당산역사거리,영등포구,서울특별시 영등포구 양평로 47 (당산동5가),37.53398400000000,126.90115600000000,1034,EDIYA,영등포knk점,영등포구,"서울 영등포구 영신로 220 (영등포동8가, KnK디지털타워)",37.52655400000000,126.90429900000000
420,STARBUCKS,신풍역,영등포구,서울특별시 영등포구 신풍로 23 (신길동),37.50034696205280,126.90843838400200,1035,EDIYA,영등포구청점,영등포구,서울 영등포구 당산로 110 (당산동3가),37.52691890000000,126.89838190000000
421,STARBUCKS,불광역,은평구,서울특별시 은평구 통일로 715 (대조동),37.60938200000000,126.93039710000000,1036,EDIYA,영등포그랜드점,영등포구,"서울 영등포구 양산로9길 15 (양평동3가, 그랜드타워)",37.52564790000000,126.88888240000000
422,STARBUCKS,구파발사거리,은평구,서울특별시 은평구 진관3로 21 은평엘크루 101동 105-108호,37.63961700000000,126.91881000000000,1037,EDIYA,영등포본동점,영등포구,서울 영등포구 영신로19길 15 (영등포동),37.51384750000000,126.90599860000000
423,STARBUCKS,연신내역사거리,은평구,서울특별시 은평구 통일로 842 (불광동),37.61862000000000,126.92206200000000,1038,EDIYA,영등포시장점,영등포구,서울 영등포구 영등포로35길 19 (영등포동6가),37.52268740000000,126.90455360000000
424,STARBUCKS,연신내,은평구,서울특별시 은평구 통일로 867 (갈현동),37.62041700000000,126.91991300000000,1039,EDIYA,영등포아크로타워점,영등포구,"서울 영등포구 국회대로54길 10 (영등포동7가, 아크로타워 스퀘어)",37.52310500000000,126.90725220000000
425,STARBUCKS,구파발역,은평구,서울특별시 은평구 진관2로 12,37.63446000000000,126.91888100000000,1040,EDIYA,영등포에이스점,영등포구,서울 영등포구 경인로 775 (문래동3가),37.51726980000000,126.89571520000000
426,STARBUCKS,은평구청입구,은평구,서울특별시 은평구 은평로 170 (응암동),37.60104200000000,126.92678900000000,1041,EDIYA,영등포점,영등포구,서울 영등포구 영중로 16-1 (영등포동3가),37.51887260000000,126.90716350000000
427,STARBUCKS,은평이마트,은평구,서울특별시 은평구 은평로 111 (응암동),37.60037923000000,126.92027350000000,1042,EDIYA,영등포중앙점,영등포구,서울 영등포구 영중로 37 (영등포동4가),37.51947639999999,126.90470540000000
428,STARBUCKS,구산역,은평구,서울특별시 은평구 연서로 146 (대조동),37.61174500000000,126.91767800000000,1043,EDIYA,영등포코레일점,영등포구,"서울 영등포구 경인로 846 (영등포동, 영등포 민자역사)",37.51592280000000,126.90737270000000
429,STARBUCKS,수색,은평구,서울특별시 은평구 수색로 216 (수색동),37.58040000000000,126.89906800000000,1044,EDIYA,영등포홈플러스점,영등포구,"서울 영등포구 당산로 42 (문래동3가, 홈플러스)",37.51898350000000,126.89870590000000
430,STARBUCKS,새절역,은평구,서울특별시 은평구 증산로 371 (신사동),37.58942667302070,126.91286345652400,1045,EDIYA,한강성심병원점,영등포구,서울 영등포구 버드나루로 51 (영등포동2가),37.52060950000000,126.91219460000000
431,STARBUCKS,더북한산,은평구,서울특별시 은평구 대서문길 24-11 (진관동),37.65545765932660,126.94755637434500,1046,EDIYA,한국수출입은행점,영등포구,"서울 영등포구 은행로 38 (여의도동, 한국수출입은행빌딩)",37.52860520000000,126.92339630000000
432,STARBUCKS,녹번역,은평구,"서울특별시 은평구 통일로 636 (녹번동) 110,111,112,113,114,115호",37.60330762131233,126.93528567756574,1047,EDIYA,힐스테이트클래시안점,영등포구,"서울 영등포구 신길로28길 9 (신길동, 힐스테이트 클래시안)",37.50368120000000,126.91259140000000
433,STARBUCKS,진관DT,은평구,서울특별시 은평구 연서로 645 (진관동),37.65017870000000,126.93619680000000,1048,EDIYA,갈현점,은평구,서울 은평구 갈현로 268 (갈현동),37.62069760000000,126.91669210000000
434,STARBUCKS,연합뉴스,종로구,서울특별시 종로구 율곡로2길 25 (수송동),37.57432890000000,126.98045900000050,1049,EDIYA,구산역점,은평구,서울 은평구 연서로 148 (대조동),37.61198820000000,126.91763340000000
435,STARBUCKS,혜화역,종로구,서울특별시 종로구 대학로12길 4 (동숭동)1~2층,37.58247790000000,127.00218500000000,1050,EDIYA,구파발역점,은평구,"서울 은평구 진관2로 29-21 (진관동, 드림스퀘어)",37.63569240000000,126.91932690000000
436,STARBUCKS,경희궁로,종로구,서울특별시 종로구 새문안로3길 15 (당주동),37.57175900000000,126.97234300000000,1051,EDIYA,녹번동점,은평구,"서울 은평구 진흥로 156 (녹번동, 신명빌딩)",37.60249050000000,126.92480740000000
437,STARBUCKS,강북삼성병원,종로구,서울특별시 종로구 새문안로 29 (평동),37.56854600000000,126.96756000000000,1052,EDIYA,녹번중앙점,은평구,"서울 은평구 통일로 635 (녹번동, 녹번동메카오피스텔)",37.60347400000000,126.93463940000000
438,STARBUCKS,종로평창동,종로구,서울특별시 종로구 평창12길 3 (평창동),37.60614900000000,126.96721300000000,1053,EDIYA,백련산아이파크점,은평구,"서울 은평구 응암로 264 (응암동, 서울빌딩)",37.58449690000000,126.91426480000000
439,STARBUCKS,광화문우체국,종로구,서울특별시 종로구 종로 6 (서린동),37.56985400000000,126.97808300000000,1054,EDIYA,본서부병원점,은평구,"서울 은평구 응암로 337 (응암동, 빛터룩스 빌딩)",37.60126920000000,126.92215170000000
440,STARBUCKS,종로R,종로구,서울특별시 종로구 종로 51 (종로2가),37.57080400000000,126.98349400000000,1055,EDIYA,불광역점,은평구,서울 은평구 통일로 731 (대조동),37.61053630000000,126.92929870000000
441,STARBUCKS,독립문역,종로구,서울특별시 종로구 송월길 155 경희궁자이 4단지 1층 팰리스애비뉴 4114~4119호,37.57143200000000,126.96126900000000,1056,EDIYA,불광연서로점,은평구,서울 은평구 연서로 275 (불광동),37.61166690000000,126.93037530000000
442,STARBUCKS,정부서울청사R,종로구,서울특별시 종로구 새문안로5가길 28 (적선동),37.57441100000000,126.97357100000000,1057,EDIYA,불광중앙점,은평구,서울 은평구 불광로 59 (불광동),37.61235030000000,126.93171180000000
443,STARBUCKS,동묘앞역,종로구,"서울특별시 종로구 종로 344 (숭인동, 대우디오빌) 101호 일부, 201호 일부",37.57270000000000,127.01607200000000,1058,EDIYA,새절역점,은평구,서울 은평구 가좌로 272 (신사동),37.59561300000000,126.90720330000000
444,STARBUCKS,종로구청,종로구,서울특별시 종로구 삼봉로 71 (수송동),37.57266200000000,126.98113800000000,1059,EDIYA,서광교회점,은평구,"서울 은평구 통일로 951 (갈현동, 서광교회)",37.62772860000000,126.91918480000000
445,STARBUCKS,북촌로,종로구,서울특별시 종로구 북촌로4길 23 (계동),37.57946200000000,126.98643100000000,1060,EDIYA,수색역점,은평구,서울 은평구 수색로 250 (수색동),37.58191540000001,126.89633940000000
446,STARBUCKS,종로수송,종로구,서울특별시 종로구 종로5길 30 (청진동) 1~3층,37.57149310000000,126.98078310000000,1061,EDIYA,역촌동점,은평구,서울 은평구 갈현로 82 (역촌동),37.60168150000000,126.91437300000000
447,STARBUCKS,새문안로,종로구,서울특별시 종로구 새문안로 92 (신문로1가) 광화문오피시아빌딩,37.56965970000000,126.97489030000000,1062,EDIYA,역촌사거리점,은평구,서울 은평구 서오릉로 100 (대조동),37.60893520000000,126.92103760000000
448,STARBUCKS,안국,종로구,서울특별시 종로구 북촌로 5-1 (재동),37.57733800000000,126.98563500000000,1063,EDIYA,역촌역점,은평구,서울 은평구 진흥로 95 (역촌동),37.60545130000000,126.92212740000000
449,STARBUCKS,삼청동,종로구,서울특별시 종로구 삼청로 111-1 (삼청동),37.58538100000000,126.98175120000000,1064,EDIYA,역촌진흥로점,은평구,서울 은평구 진흥로1길 3 (역촌동),37.60801080000000,126.91935460000000
450,STARBUCKS,광화문D타워,종로구,서울특별시 종로구 종로3길 17 (청진동) D타워,37.57140000000000,126.97882970000000,1065,EDIYA,연신내역점,은평구,서울 은평구 통일로 855-9 (갈현동),37.62154100000000,126.91357800000000
451,STARBUCKS,적선,종로구,"서울특별시 종로구 새문안로5길 55, 노스게이트빌딩 1층 (적선동)",37.57520431000000,126.97393610000000,1066,EDIYA,연신내통일로점,은평구,서울 은평구 통일로 876 (불광동),37.62119630000000,126.92027730000000
452,STARBUCKS,인사,종로구,서울특별시 종로구 인사동길 14 (인사동),37.57212930000000,126.98703490000002,1067,EDIYA,은평구청점,은평구,서울 은평구 은평로 197 (녹번동),37.60160970000000,126.92964610000000
453,STARBUCKS,광화문,종로구,서울특별시 종로구 세종대로 167 (세종로),37.57122930000000,126.97628720000000,1068,EDIYA,은평이마트점,은평구,"서울 은평구 은평로 111 (응암동, 은평이마트)",37.60039460000000,126.92021490000000
454,STARBUCKS,성대입구,종로구,서울특별시 종로구 창경궁로 235 (명륜3가),37.58289200000000,126.99839200000000,1069,EDIYA,응암역점,은평구,"서울 은평구 연서로 9 (역촌동, 센타폴리스)",37.60647810000000,126.91588070000000
455,STARBUCKS,스페이스본,종로구,서울특별시 종로구 사직로8길 4 (사직동) 광화문 풍림스페이스본,37.57532212000000,126.96924940000000,1070,EDIYA,응암오거리점,은평구,서울 은평구 응암로 211 (응암동),37.59089570000000,126.91712520000000
456,STARBUCKS,주얼리시티,종로구,서울특별시 종로구 종로 183 (인의동) 효성주얼리시티,37.57154914000000,126.99870500000000,1071,EDIYA,응암중앙점,은평구,서울 은평구 응암로 183 (응암동),37.58842700000000,126.91664310000000
457,STARBUCKS,종각,종로구,서울특별시 종로구 종로 64 (종로2가),37.56991830000000,126.98452810000003,1072,EDIYA,증산동점,은평구,서울 은평구 증산서길 78 (증산동),37.58332990000000,126.90652440000000
458,STARBUCKS,동숭로아트,종로구,서울특별시 종로구 동숭길 110 (동숭동),37.58296900000000,127.00387600000000,1073,EDIYA,경복궁역점,종로구,"서울 종로구 자하문로 7 (체부동, 성명빌딩)",37.55914580000000,126.92089200000000
459,STARBUCKS,종로관철,종로구,"서울특별시 종로구 종로12길 21, 2층 (관철동)",37.56905800000000,126.98601300000000,1074,EDIYA,경희궁점,종로구,서울 종로구 경희궁1길 16 (신문로2가),37.57166700000000,126.97070190000000
460,STARBUCKS,경복궁역,종로구,"서울특별시 종로구 자하문로4길 6, 1층 (통의동)",37.57715080000000,126.97274530000004,1075,EDIYA,광화문점,종로구,서울 종로구 세종대로23길 15 (도렴동),37.57150270000000,126.97566100000000
461,STARBUCKS,이마빌딩,종로구,서울특별시 종로구 종로1길 42 (수송동),37.57386370000000,126.97897149999994,1076,EDIYA,낙원동점,종로구,서울 종로구 낙원동 ,37.57257240000000,126.98862310000000
462,STARBUCKS,마로니에공원,종로구,"서울특별시 종로구 대학로 116, 1-2층 (동숭동)",37.58154296000000,127.00234120000000,1077,EDIYA,대학로점,종로구,서울 종로구 대학로10길 17 (동숭동),37.58322000000000,127.00439350000000
463,STARBUCKS,종로3가,종로구,"서울특별시 종로구 종로 113-1, 1-4층 (종로3가)",37.57055270000000,126.99020550000000,1078,EDIYA,독립문역점,종로구,서울 종로구 통일로 266 (무악동),37.57719710000000,126.95863970000000
464,STARBUCKS,대학로,종로구,"서울특별시 종로구 대학로 57, 홍익대학교 대학로캠퍼스 內 (연건동)",37.57650900000000,127.00144900000000,1079,EDIYA,동대문역점,종로구,"서울 종로구 율곡로 286 (종로6가, 야드인빌딩)",37.57183250000000,127.00814910000000
465,STARBUCKS,경복궁사거리,종로구,"서울특별시 종로구 율곡로 6, B동 101호(중학동, 트윈트리타워)",37.57557800000000,126.98058100000000,1080,EDIYA,동묘역점,종로구,서울 종로구 종로 354 (숭인동),37.57766310000000,127.02240150000000
466,STARBUCKS,종로관수,종로구,서울특별시 종로구 삼일대로20길 13 (관수동),37.56938500000000,126.98866500000000,1081,EDIYA,방통대점,종로구,서울 종로구 대학로 81-1 (연건동),37.57834620000000,127.00173750000000
467,STARBUCKS,광화문교보문고,종로구,서울특별시 종로구 종로 1 (종로1가),37.57101700000000,126.97793700000000,1082,EDIYA,배화여대점,종로구,서울 종로구 필운대로1길 35 (필운동),37.57782410000000,126.96737170000000
468,STARBUCKS,정동,종로구,서울특별시 종로구 새문안로 42 (신문로2가),37.56857800000000,126.97006700000000,1083,EDIYA,북촌마을점,종로구,서울 종로구 북촌로5길 39 (화동),37.58222120000000,126.98184900000000
469,STARBUCKS,종로플레이스,종로구,서울특별시 종로구 창경궁로 120 (인의동),37.57319000000000,126.99830900000000,1084,EDIYA,삼일빌딩점,종로구,서울 종로구 삼일대로15길 13 (관철동),37.56938680000000,126.98797200000000
470,STARBUCKS,강북삼성병원1층,종로구,서울특별시 종로구 새문안로 29 (평동),37.56854600000000,126.96756000000000,1085,EDIYA,상명대점,종로구,서울 종로구 홍지동,37.60079920000000,126.95656880000000
471,STARBUCKS,동숭길입구,종로구,서울특별시 종로구 대학로 146 (혜화동),37.58423600000000,127.00201400000000,1086,EDIYA,성균관대점,종로구,서울 종로구 성균관로 8 (명륜2가),37.58445200000000,126.99948500000000
472,STARBUCKS,서울대치과병원,종로구,서울특별시 종로구 대학로 101 서울대학교 치과병원 신관1층,37.57790000000000,126.99965000000000,1087,EDIYA,숭인점,종로구,서울 종로구 숭인동길 6 (숭인동),37.57526170000000,127.02159680000000
473,STARBUCKS,서대문역,종로구,서울특별시 종로구 통일로 134 (평동),37.56670000000000,126.96629000000000,1088,EDIYA,신설점,종로구,서울 종로구 난계로29길 30 (숭인동),37.57423890000000,127.02147330000000
474,STARBUCKS,숭례문북창,중구,서울특별시 중구 세종대로12길 12 (남대문로4가),37.56172500000000,126.97683800000000,1089,EDIYA,종로3가점,종로구,서울 종로구 종로 126 (종로3가),37.57006300000000,126.99173260000000
475,STARBUCKS,을지로4가역,중구,서울특별시 중구 을지로 170 (을지로4가),37.56668200000000,126.99728500000000,1090,EDIYA,종로4가점,종로구,서울 종로구 김상옥로 1 (인의동),37.57350770000000,126.99790320000000
476,STARBUCKS,동대문두타,중구,서울특별시 중구 장충단로 275 (을지로6가),37.56892512604548,127.00878383484597,1091,EDIYA,종로5가점,종로구,서울 종로구 대학로 33 (효제동),37.57304960000000,127.00308820000000
477,STARBUCKS,대한상공회의소R,중구,서울특별시 중구 세종대로 39 (남대문로4가) 1층,37.56093800000000,126.97370200000000,1092,EDIYA,종로교차로점,종로구,서울 종로구 동호로 406-1 (종로5가),37.57060000000000,127.00225700000000
478,STARBUCKS,국립중앙의료원,중구,서울특별시 중구 을지로 251 (을지로6가),37.56651600000000,127.00623760000000,1093,EDIYA,종로구청점,종로구,서울 종로구 수송동,37.57369730000000,126.98064530000000
479,STARBUCKS,동국대,중구,서울특별시 중구 서애로 1길 11,37.56154200000000,126.99843700000000,1094,EDIYA,종로삼일대로점,종로구,서울 종로구 삼일대로 390-1 (관철동),37.56912450000000,126.98600440000000
480,STARBUCKS,신세계본점5F,중구,서울특별시 중구 소공로 63 (충무로1가),37.56095100000000,126.98113400000000,1095,EDIYA,종로타워점,종로구,"서울 종로구 종로 51 (종로2가, 종로타워)",37.57079000000000,126.98356000000000
481,STARBUCKS,을지로내외빌딩R,중구,서울특별시 중구 을지로 51 (을지로2가),37.56647900000000,126.98366300000000,1096,EDIYA,창덕궁점,종로구,서울 종로구 돈화문로 41-1 (묘동),37.57227400000000,126.99143490000000
482,STARBUCKS,대우재단빌딩,중구,서울특별시 중구 퇴계로 18 (남대문로5가),37.55678100000000,126.97508100000000,1097,EDIYA,창신중앙점,종로구,서울 종로구 지봉로 64 (숭인동),37.57573040000000,127.01584220000000
483,STARBUCKS,동대문공원,중구,서울특별시 중구 장충단로 229 (광희동1가),37.56513300000000,127.00719100000000,1098,EDIYA,탑골공원점,종로구,서울 종로구 낙원동 ,37.57257240000000,126.98862310000000
484,STARBUCKS,을지로국제빌딩,중구,서울특별시 중구 남대문로 109 (다동),37.56695200000000,126.98221900000000,1099,EDIYA,혜화동로터리점,종로구,서울 종로구 혜화로 3-1 (혜화동),37.58605780000000,127.00054630000000
485,STARBUCKS,동대입구역,중구,서울특별시 중구 장충단로 166 (장충동1가),37.55959300000000,127.00614200000000,1100,EDIYA,혜화역점,종로구,서울 종로구 창경궁로 258-15 (명륜2가),37.58469970000000,126.99904120000000
486,STARBUCKS,신당역사거리,중구,서울특별시 중구 다산로 258 (흥인동),37.56580700000000,127.01643000000000,1101,EDIYA,IBK본점,중구,"서울 중구 을지로 79 (을지로2가, 기업은행)",37.56645410000000,126.98655260000000
487,STARBUCKS,연세세브란스,중구,서울특별시 중구 통일로 10 (남대문로5가),37.55720700000000,126.97354000000000,1102,EDIYA,광희동점,중구,서울 중구 마른내로 165-1 (광희동1가),37.56482570000000,127.00615070000000
488,STARBUCKS,회현역,중구,서울특별시 중구 퇴계로 72 (회현동) 리더스뷰남산,37.55898090000000,126.98074670000005,1103,EDIYA,다동점,중구,서울 중구 다동길 46 (다동),37.56792240000000,126.98205510000000
489,STARBUCKS,을지로경기빌딩,중구,서울특별시 중구 남대문로10길 9 (삼각동) 경기빌딩,37.56717200000000,126.98315600000000,1104,EDIYA,동국대후문점,중구,"서울 중구 창경궁로 2 (충무로5가, 남경빌딩)",37.56255340000000,126.99870280000000
490,STARBUCKS,을지로2가,중구,서울특별시 중구 삼일대로 358 (을지로2가),37.56634700000000,126.98806600000000,1105,EDIYA,동대문점,중구,서울 중구 을지로43길 38 (을지로6가),37.56770480000000,127.00776410000000
491,STARBUCKS,신세계본점6F,중구,서울특별시 중구 퇴계로 77 (충무로1가),37.56038100000000,126.98075800000000,1106,EDIYA,동평화점,중구,서울 중구 청계천로 318 (신당동),37.56946110000000,127.01394660000000
492,STARBUCKS,서울중앙우체국,중구,서울특별시 중구 소공로 70 (충무로 1가) 서울 중앙 우체국,37.56167800000000,126.98211700000000,1107,EDIYA,만리동고개점,중구,"서울 중구 만리재로 175 (만리동2가, 서울역센트럴자이),402동 102호",37.55453800000000,126.96368140000000
493,STARBUCKS,한국프레스센터,중구,서울특별시 중구 세종대로 124 (태평로1가),37.56738100000000,126.97785900000000,1108,EDIYA,명동거리점,중구,"서울 중구 명동8가길 7 (충무로2가, 프리엠상가)",37.56175730000000,126.98540280000000
494,STARBUCKS,명동중앙로,중구,서울특별시 중구 명동길 60 (명동 2가),37.56374850000000,126.98577230000000,1109,EDIYA,명동역점,중구,서울 중구 퇴계로 103 (충무로1가),37.56116990000000,126.98251620000000
495,STARBUCKS,약수역,중구,서울특별시 중구 다산로 129 (신당동),37.55543700000000,127.01072530000000,1110,EDIYA,명동중앙점,중구,"서울 중구 명동7길 21 (을지로2가, 명동아르누보센텀)",37.56469180000000,126.98384290000000
496,STARBUCKS,중구저동,중구,서울특별시 중구 수표로 34 (저동2가),37.56436860000000,126.99033820000000,1111,EDIYA,서소문점,중구,서울 중구 서소문로11길 8 (서소문동),37.56332020000000,126.97303750000000
497,STARBUCKS,명동길,중구,서울특별시 중구 명동10길 41,37.56206950000000,126.98586690000000,1112,EDIYA,서울시청점,중구,"서울 중구 세종대로20길 23 (무교동, 원창빌딩)",37.56715330000000,126.97875660000000
498,STARBUCKS,서소문로,중구,서울특별시 중구 서소문로 120 (서소문동) 대한빌딩,37.56300600000000,126.97454600000000,1113,EDIYA,신당점,중구,서울 중구 다산로35길 11 (신당동),37.56355230000000,127.01481740000000
499,STARBUCKS,신당역,중구,"서울특별시 중구 퇴계로 385, 1층 (흥인동)",37.56552200000000,127.01455400000000,1114,EDIYA,신당중앙점,중구,서울 중구 퇴계로 455 (황학동),37.56748190000000,127.01990630000000
500,STARBUCKS,명동메트로,중구,서울특별시 중구 명동9가길 14 (을지로1가) 메트로호텔,37.56511800000000,126.98368100000000,1115,EDIYA,약수역점,중구,서울 중구 동호로 186-13 (신당동),37.55455830000000,127.01163920000000
501,STARBUCKS,숭례문,중구,"서울특별시 중구 세종대로 17, 와이즈타워 1층 (남대문로5가)",37.55874473000000,126.97309520000000,1116,EDIYA,오장동점,중구,서울 중구 마른내로 109-1 (오장동),37.56461010000000,127.00013670000000
502,STARBUCKS,순화동더샵,중구,"서울특별시 중구 칠패로 27, 1층 (순화동)",37.56007200000000,126.97193100000000,1117,EDIYA,을지로3가점,중구,서울 중구 수표로 45 (저동2가),37.56353930000000,126.99060860000000
503,STARBUCKS,대한극장,중구,"서울특별시 중구 퇴계로 212 (필동2가) 1,2층",37.56105065000000,126.99527350000000,1118,EDIYA,정동점,중구,서울 중구 정동길 2-1 (정동),37.56797830000000,126.96935740000000
504,STARBUCKS,환구단,중구,서울특별시 중구 소공로 112 (소공동),37.56444800000000,126.97915700000000,1119,EDIYA,중림점,중구,서울 중구 청파로 464 (중림동),37.56063550000000,126.96834130000000
505,STARBUCKS,무교동,중구,서울특별시 중구 무교로 21 (무교동) 코오롱빌딩 1층,37.56781712000000,126.97873800000000,1120,EDIYA,청구역점,중구,서울 중구 다산로 181-2 (신당동),37.55977499999999,127.01323510000000
506,STARBUCKS,문화일보,중구,서울특별시 중구 새문안로 22 (충정로1가) 문화일보,37.56712291000000,126.96866420000000,1121,EDIYA,충무로3가점,중구,서울 중구 퇴계로27길 31 (충무로3가),37.56256740000000,126.99124840000000
507,STARBUCKS,태평로,중구,"서울특별시 중구 세종대로 72, 대영빌딩 1층 (태평로2가)",37.56248285000000,126.97679280000000,1122,EDIYA,충무로점,중구,서울 중구 퇴계로 188 (필동1가),37.56108620000000,126.99246720000000
508,STARBUCKS,퍼시픽타워,중구,"서울특별시 중구 세종대로9길 41, 퍼시픽타워 1층 (서소문동)",37.56132157000000,126.97302640000000,1123,EDIYA,충무아트홀점,중구,서울 중구 퇴계로 381-1 (신당동),37.56527860000001,127.01400120000000
509,STARBUCKS,남산단암,중구,"서울특별시 중구 소월로 10, 단암빌딩 (남대문로5가)",37.55853622000000,126.97545850000000,1124,EDIYA,충무필동점,중구,서울 중구 퇴계로 218-5 (필동2가),37.55877340000000,126.99472090000000
510,STARBUCKS,황학캐슬,중구,서울특별시 중구 청계천로 400 (황학동) 롯데캐슬베네치아,37.57124000000000,127.02290500000000,1125,EDIYA,태평로점,중구,서울 중구 세종대로11길 26 (서소문동),37.56382820000000,126.97520550000000
511,STARBUCKS,을지로삼화타워,중구,서울특별시 중구 을지로5길 16 (을지로2가) 1층,37.56690200000000,126.98470700000000,1126,EDIYA,퇴계로2길점,중구,서울 중구 퇴계로2길 1 (남창동),37.56092920000000,126.97876350000000
512,STARBUCKS,소공로,중구,"서울특별시 중구 남대문로7길 19, 삼영빌딩 1층 일부 (소공동)",37.56372730000000,126.98076809999998,1127,EDIYA,한국은행점,중구,서울 중구 남대문로 29-2 (남대문로3가),37.56144320000000,126.97896390000000
513,STARBUCKS,을지로한국빌딩,중구,"서울특별시 중구 을지로 50, 1층 (을지로 2가)",37.56572200000000,126.98329000000000,1128,EDIYA,황학롯데캐슬점,중구,"서울 중구 청계천로 400 (황학동, 롯데캐슬베네치아)",37.57121910000000,127.02130010000000
514,STARBUCKS,시청,중구,"서울특별시 중구 을지로 19, 삼성화재삼성빌딩 1층 (을지로1가)",37.56629000000000,126.97980800000000,1129,EDIYA,회현SK리더스점,중구,"서울 중구 퇴계로 72 (회현동1가, 리더스뷰남산)",37.55923020000000,126.98066390000000
515,STARBUCKS,명동역,중구,"서울특별시 중구 퇴계로 101, 건물 전체 (충무로 1가)",37.56102000000000,126.98312000000000,1130,EDIYA,강동고덕교차로점,강동구,"서울 강동구 고덕로 421 (강일동, 대한연세요양원)",37.55737130000001,127.17253990000000
516,STARBUCKS,명동입구,중구,서울특별시 중구 남대문로 68-1 (명동2가),37.56331900000000,126.98224200000000,1131,EDIYA,강동구청점,강동구,"서울 강동구 성내로6길 20 (성내동, 청일 베르네)",37.52887530000000,127.12228990000000
517,STARBUCKS,충무로,중구,서울특별시 중구 충무로 3 (필동1가),37.56149598081020,126.99282309719600,1132,EDIYA,강동성내점,강동구,서울 강동구 풍성로 162 (성내동),37.53048130000000,127.12985840000000
518,STARBUCKS,이마트타워,중구,서울특별시 중구 세종대로7길 37 (순화동) 1층,37.56074346369670,126.97252839195800,1133,EDIYA,강동신명초교점,강동구,"서울 강동구 명일로 260 (길동, 길동신동아아파트)",37.53961570000000,127.14592930000000
519,STARBUCKS,무교로,중구,서울특별시 중구 무교로 15 (무교동),37.56739900000000,126.97890000000000,1134,EDIYA,강동역점,강동구,"서울 강동구 천호대로 1065 (천호동, 강동상떼빌)",37.53698410000000,127.13045890000000
520,STARBUCKS,청계크리스탈스퀘어,중구,서울특별시 중구 청계천로 106 (수표동),37.56790000000000,126.98933000000000,1135,EDIYA,강일점,강동구,"서울 강동구 아리수로93길 19 (강일동, 임페리얼타워)",37.56537890000000,127.17411460000000
521,STARBUCKS,숭례문SG타워,중구,서울특별시 중구 세종대로 14 (남대문로5가),37.55812930000000,126.97426370000000,1136,EDIYA,고덕강일2지구점,강동구,서울 강동구 아리수로93나길 76 (강일동),37.57219860000000,127.17422560000000
522,STARBUCKS,세종대로,중구,서울특별시 중구 세종대로 135-5 (태평로1가),37.56867800000000,126.97649300000000,1137,EDIYA,고덕그라시움후문점,강동구,서울 강동구 동남로82길 121 (고덕동),37.56426580000000,127.16712440000000
523,STARBUCKS,동대문디자인플라자,중구,서울특별시 중구 을지로 281 (을지로7가) 디자인장터,37.56743000000000,127.00975800000000,1138,EDIYA,고덕점,강동구,"서울 강동구 동남로75길 19 (명일동, 명일빌딩)",37.55409510000000,127.15514710000000
524,STARBUCKS,레스케이프호텔R,중구,서울특별시 중구 퇴계로 67 (회현동1가),37.55983460000000,126.97949460000000,1139,EDIYA,길동사거리점,강동구,서울 강동구 천호대로 1132 (성내동),37.53049330000000,127.12899200000000
525,STARBUCKS,별다방,중구,서울특별시 중구 퇴계로 100 (회현동2가),37.56020130000000,126.98293270000000,1140,EDIYA,길동역점,강동구,서울 강동구 양재대로 1471 (길동),37.53728220000000,127.13940910000000
526,STARBUCKS,포포인츠명동,중구,서울특별시 중구 삼일대로10길 36 (저동2가),37.56572110000000,126.98934260000000,1141,EDIYA,길동중앙점,강동구,서울 강동구 명일로 200 (길동),37.53653470000000,127.14593820000000
527,STARBUCKS,명동남산,중구,서울특별시 중구 퇴계로 132 (남산동3가),37.56080900000000,126.98639700000000,1142,EDIYA,둔촌점,강동구,서울 강동구 양재대로 1377 (성내동),37.53049330000000,127.12899200000000
528,STARBUCKS,명일역,강동구,서울특별시 강동구 양재대로 1647 (명일동),37.55258000000000,127.14379900000000,1143,EDIYA,명일역점,강동구,"서울 강동구 구천면로 424 (명일동, 명일메가타운)",37.55031650000000,127.14556920000000
529,STARBUCKS,강동구청DT,강동구,서울특별시 강동구 성내로 32 (성내동),37.52943700000000,127.12383500000000,1144,EDIYA,명일중앙점,강동구,"서울 강동구 상암로 210 (명일동, 명일현대종합상가)",37.54845670000000,127.14878670000000
530,STARBUCKS,강동암사DT,강동구,서울특별시 강동구 고덕로 43 (암사동),37.55505400000000,127.13006500000000,1145,EDIYA,보훈병원점,강동구,"서울 강동구 명일로 110 (둔촌동, 둔촌동암펠로스타워)",37.52870910000000,127.14317670000000
531,STARBUCKS,굽은다리역,강동구,"서울특별시 강동구 양재대로 1568 (명일동, 원일타워)",37.54540300000000,127.14310100000000,1146,EDIYA,상일리엔파크점,강동구,"서울 강동구 상일로 74 (상일동, 고덕리엔파크3단지아파트)",37.55256120000000,127.17525620000000
532,STARBUCKS,강동역,강동구,"서울특별시 강동구 천호대로 1089 (천호동, 강동 헤르셔)",37.53604700000000,127.13308600000000,1147,EDIYA,암사중앙점,강동구,"서울 강동구 암사길 50 (암사동, 제이빌더스)",37.55158690000000,127.13486330000000
533,STARBUCKS,둔촌동,강동구,서울특별시 강동구 양재대로 1303 (성내동) 평원빌딩,37.52272400000000,127.13394300000000,1148,EDIYA,올림픽북문점,강동구,서울 강동구 성안로 7 (성내동),37.52454190000000,127.12889230000000
534,STARBUCKS,천호로데오,강동구,서울특별시 강동구 천호대로 1037 (천호동),37.53780690000000,127.12730940000006,1149,EDIYA,천호로데오점,강동구,서울 강동구 천호대로 1027 (천호동),37.53824140000000,127.12634640000000
535,STARBUCKS,천호이마트,강동구,서울특별시 강동구 천호대로 1015-14 (천호동) 이마트별관,37.53893300000000,127.12521400000000,1150,EDIYA,천호역점,강동구,서울 강동구 천호대로 1006 (성내동),37.53049330000000,127.12899200000000
536,STARBUCKS,길동역,강동구,서울특별시 강동구 양재대로 1487 (길동),37.53874330000000,127.13998790000000,1151,EDIYA,천호중앙점,강동구,"서울 강동구 올림픽로 660 (천호동, 천호엘크루주상복합)",37.54016160000000,127.12451750000000
537,STARBUCKS,상일동,강동구,"서울특별시 강동구 상일로10길 36, 1~2층 (상일동)",37.55079895986590,127.17410429214200,1152,EDIYA,천호초교사거리점,강동구,"서울 강동구 구천면로 304 (천호동, 일주빌딩)",37.56961860000000,127.02360390000000
538,STARBUCKS,천호역,강동구,"서울특별시 강동구 천호대로 1012, 태승빌딩 (성내동)",37.53795191000000,127.12457930000000,1153,EDIYA,천호현대점,강동구,서울 강동구 올림픽로 665 (천호동),37.54102890000000,127.12371520000000
539,STARBUCKS,명일이마트,강동구,서울특별시 강동구 동남로75길 5 (명일동) 명일이마트별관주차장,37.55399100000000,127.15598400000000,1154,EDIYA,개봉역점,구로구,서울 구로구 남부순환로97길 11 (개봉동),37.50300220000000,126.84648510000000
540,STARBUCKS,상일동역,강동구,"서울특별시 강동구 고덕로 399 (고덕동, 고덕센트럴푸르지오)",37.55754181615496,127.17072672474717,1155,EDIYA,개봉중앙점,구로구,서울 구로구 개봉로3길 26 (개봉동),37.48647520000000,126.85488820000000
541,STARBUCKS,천호사거리,강동구,서울특별시 강동구 올림픽로 651 (천호동),37.53970200000000,127.12354200000000,1156,EDIYA,개봉현대점,구로구,서울 구로구 개봉로 69 (개봉동),37.49189860000000,126.85565950000000
542,STARBUCKS,강일역,강동구,"서울특별시 강동구 고덕로 429 (강일동), 1층",37.55747468801038,127.17351070838722,1157,EDIYA,고척사거리점,구로구,"서울 구로구 고척로 228-6 (고척동, 종만빌딩)",37.50574720000000,126.85823760000000
543,STARBUCKS,올림픽공원북2문,강동구,서울특별시 강동구 강동대로 199 (성내동),37.52418320000000,127.12867750000000,1158,EDIYA,고척스카이돔점,구로구,"서울 구로구 경인로 397 (고척동, 골든타워빌딩)",37.50318840000000,126.85885100000000
544,STARBUCKS,천호대로길동,강동구,서울특별시 강동구 천호대로 1131 거산 유팰리스,37.53465100000000,127.13721000000000,1159,EDIYA,구로NC점,구로구,서울 구로구 구로동로 240 (구로동),37.50002360000000,126.88268050000000
545,STARBUCKS,신도림,구로구,서울특별시 구로구 경인로 610 (신도림동),37.50551700000000,126.88395300000000,1160,EDIYA,구로거리공원점,구로구,서울 구로구 구로중앙로28길 73 (구로동),37.50075910000000,126.88940180000000
546,STARBUCKS,구로디지털타워,구로구,서울특별시 구로구 디지털로32길 30 (구로동),37.48343200000000,126.89648000000000,1161,EDIYA,구로고척점,구로구,"서울 구로구 고척로 149 (고척동, 상암빌딩)",37.57603220000000,126.89467180000000
547,STARBUCKS,오류동역,구로구,서울특별시 구로구 경인로 216 (오류동),37.49621550000000,126.84486140000000,1162,EDIYA,구로구청점,구로구,"서울 구로구 가마산로25길 9 (구로동, 네오팰리스)",37.49658830000001,126.89030540000000
548,STARBUCKS,구로디지털로,구로구,"서울특별시 구로구 디지털로33길 11, 에이스테크노8차 1층 (구로동)",37.48591100000000,126.89558700000000,1163,EDIYA,구로궁동점,구로구,서울 구로구 오리로 1304 (궁동) 1층,37.50043890000000,126.82852960000000
549,STARBUCKS,구로에이스,구로구,"서울특별시 구로구 디지털로 285, 에이스트윈타워1차 103호 (구로동)",37.48448329000000,126.89449570000000,1164,EDIYA,구로미성점,구로구,"서울 구로구 구로중앙로 228 (신도림동, 기임빌딩)",37.50609590000000,126.87662000000000
550,STARBUCKS,구로하이엔드,구로구,"서울특별시 구로구 디지털로26길 5, 에이스하이엔드타워1차 103호 (구로동)",37.48161800000000,126.89313600000000,1165,EDIYA,구로에이스점,구로구,서울 구로구 디지털로33길 11 (구로동),37.48571560000000,126.89550920000000
551,STARBUCKS,현대디큐브2F,구로구,서울특별시 구로구 경인로 662 (신도림동),37.50863600000000,126.88922500000000,1166,EDIYA,구로역광장점,구로구,"서울 구로구 경인로 572 (구로동, 스타팰리스)",37.49796680000000,126.88436690000000
552,STARBUCKS,구로호텔,구로구,"서울특별시 구로구 디지털로32길 72, 구로호텔 1층 (구로동)",37.48312930000000,126.89885909999998,1167,EDIYA,구로이마트점,구로구,서울 구로구 디지털로32길 43 (구로동),37.48434850000000,126.89792200000000
553,STARBUCKS,현대디큐브B2,구로구,서울특별시 구로구 경인로 662 (신도림동),37.50882800000000,126.88948800000000,1168,EDIYA,구로중앙점,구로구,서울 구로구 도림로 79 (구로동),37.49008570000000,126.89202840000000
554,STARBUCKS,구로고척,구로구,서울특별시 구로구 경인로 387 (고척동),37.49706000000000,126.86315000000000,1169,EDIYA,구로코레일점,구로구,"서울 구로구 구로중앙로 174 (구로동, 구로역)",37.50257980000000,126.88215450000000
555,STARBUCKS,구로NC,구로구,서울특별시 구로구 구로중앙로 152 (구로동) 구로NC,37.50121900000000,126.88279800000000,1170,EDIYA,구일역점,구로구,"서울 구로구 구일로 110 (구로동, 해원리버파크)",37.49505710000000,126.87200690000000
556,STARBUCKS,구로오류DT,구로구,서울특별시 구로구 서해안로 2233 (오류동),37.48812923188320,126.83449188984100,1171,EDIYA,남구로역점,구로구,서울 구로구 디지털로27길 127 (가리봉동),37.48467060000000,126.88711900000000
557,STARBUCKS,구로구청,구로구,"서울특별시 구로구 가마산로 232 (구로동, 스페스큐브), B101호",37.49395067031256,126.88676120707717,1172,EDIYA,메르디앙고척점,구로구,"서울 구로구 중앙로8길 11 (고척동, 고척 월드메르디앙)",37.50294480000000,126.86314740000000
558,STARBUCKS,고척아이파크,구로구,"서울특별시 구로구 경인로43길 49 (고척동, 고척아이파크), 1층 D-101호",37.49930562934076,126.85822089235810,1173,EDIYA,성공회대점,구로구,서울 구로구 연동로 312 (항동),37.48729730000000,126.82423290000000
559,STARBUCKS,답십리역,동대문구,서울특별시 동대문구 천호대로 263 (답십리동),37.56846600000000,127.05110600000000,1174,EDIYA,신도림메르디앙점,구로구,"서울 구로구 신도림로 65 (신도림동, 신도림월드메르디앙오피스텔)",37.50954010000000,126.88203610000000
560,STARBUCKS,경희대삼거리,동대문구,서울특별시 동대문구 회기로 141 (회기동),37.59153100000000,127.05201700000000,1175,EDIYA,신도림테크노마트점,구로구,서울 구로구 새말로 97 (구로동),37.50697350000000,126.89031930000000
561,STARBUCKS,외대정문,동대문구,서울특별시 동대문구 이문로 93 (이문동),37.59534640000000,127.05903020000000,1176,EDIYA,오류남부점,구로구,서울 구로구 오류로8길 65 (오류동),37.49269590000000,126.84374390000000
562,STARBUCKS,신설동역,동대문구,서울특별시 동대문구 왕산로 19 (신설동),37.57672280000000,127.02554460000000,1177,EDIYA,오류북부역점,구로구,서울 구로구 경인로20길 6 (오류동),37.49664040000000,126.83852460000000
563,STARBUCKS,회기역사거리,동대문구,서울특별시 동대문구 이문로 37 (회기동),37.59078400000000,127.05609800000000,1178,EDIYA,천왕이펜하우스점,구로구,서울 구로구 천왕로 36 (천왕동),37.48100830000000,126.83927020000000
564,STARBUCKS,외대,동대문구,서울특별시 동대문구 휘경로 12-1 (이문동),37.59575188000000,127.06140020000000,1179,EDIYA,경희대점,동대문구,서울 동대문구 경희대로 4 (회기동),37.59189370000000,127.05252640000000
565,STARBUCKS,장한평역,동대문구,서울특별시 동대문구 장한로 10 (장안동),37.56233700000000,127.06551100000000,1180,EDIYA,경희대캠퍼스점,동대문구,"서울 동대문구 경희대로 26 (회기동, 경희대학교,경희초,중,고,여자중고등학교)",37.59489370000000,127.04915620000000
566,STARBUCKS,경희대,동대문구,서울특별시 동대문구 경희대로 16-1 (회기동),37.59288120000000,127.05280849999997,1181,EDIYA,답십리사거리점,동대문구,서울 동대문구 답십리로 145 (답십리동),37.57308829999999,127.05610540000000
567,STARBUCKS,경동1960,동대문구,서울특별시 동대문구 고산자로36길 3 (제기동),37.57961410214940,127.03868496377300,1182,EDIYA,답십리파크자이점,동대문구,"서울 동대문구 한천로 55 (답십리동, 영진빌딩)",37.56685700000000,127.06183610000000
568,STARBUCKS,청량리역사,동대문구,서울특별시 동대문구 왕산로 214 (전농동),37.57945000000000,127.04785000000000,1183,EDIYA,동대문구청점,동대문구,서울 동대문구 천호대로 153-1 (용두동),37.57960430000000,127.02994090000000
569,STARBUCKS,서울숲역,성동구,서울특별시 성동구 왕십리로 50 (성수동1가) 1층,37.54207500000000,127.04496100000000,1184,EDIYA,동부병원사거리점,동대문구,서울 동대문구 무학로 104 (용두동),37.57351260000000,127.03091030000000
570,STARBUCKS,금호역,성동구,서울특별시 성동구 동호로 99 (금호동4가),37.54799390000000,127.01533430000000,1185,EDIYA,배봉초교사거리점,동대문구,서울 동대문구 답십리로63길 131 (장안동),37.57849590000000,127.06932240000000
571,STARBUCKS,뚝섬역,성동구,서울특별시 성동구 아차산로 42 (성수동1가),37.54643200000000,127.04904200000000,1186,EDIYA,서울시립대점,동대문구,"서울 동대문구 서울시립대로 164 (전농동, 도석프라자)",37.58331270000000,127.05481630000000
572,STARBUCKS,황학사거리,성동구,"서울특별시 성동구 왕십리로 410 (하왕십리동, 센트라스)",37.56764400000000,127.02369700000000,1187,EDIYA,신설동역점,동대문구,서울 동대문구 천호대로 11-3 (신설동),37.57813150000000,127.02739330000000
573,STARBUCKS,성수역,성동구,서울특별시 성동구 성수이로 94 (성수동2가),37.54319300000000,127.05694300000000,1188,EDIYA,외대점,동대문구,서울 동대문구 휘경로 12 (이문동),37.59582130000000,127.06127350000000
574,STARBUCKS,상왕십리역,성동구,서울특별시 성동구 왕십리로 382 (하왕십리동),37.56516900000000,127.02790700000000,1189,EDIYA,용두동사거리점,동대문구,서울 동대문구 왕산로 68 (용두동),37.57572570000000,127.03428600000000
